{
  "count": 200,
  "data": [
    {
      "address": "18 Ngõ 187 Hồng Mai, P. Quỳnh Lôi, Hai Bà Trưng, Hà Nội",
      "name": "Papa’s Kitchen - Đồ Ăn Hàn Quốc & Cơm Trộn Healthy Gạo Lứt - Hồng Mai",
      "latitude": 20.99979316,
      "longitude": 105.85576286,
      "description": "Amplitudo cariosus caelum cultellus canto adimpleo astrum doloremque timor. Cupiditas deserunt tenuis temeritas vapulus nisi vulnus. Traho aqua quo cogito aequitas cursim ustulo decimus maxime demonstro."
    },
    {
      "address": "51B Đại Cồ Việt , P. Bách Khoa, Hai Bà Trưng, Hà Nội",
      "name": "Tanka Quán - Chân Gà Nướng & Cánh Gà Nướng - Đại Cồ Việt",
      "latitude": 21.00821251,
      "longitude": 105.84705087,
      "description": "Sit currus quisquam. Sollers doloremque coaegresco volo vomer cognatus tutamen calculus. Nobis ulterius reiciendis curiositas vallum torrens comptus sublime sortitus concedo."
    },
    {
      "address": "24 Ngõ 132 Lò Đúc, P. Đống Mác, Hai Bà Trưng, Hà Nội",
      "name": "Tây Tây Mart - Lẩu Thái - Lò Đúc",
      "latitude": 21.0125892,
      "longitude": 105.8580025,
      "description": "Crapula eius animi ex claustrum demitto arceo ars modi complectus. Demergo copia suffragium colligo. Dens sum amor umerus cruciamentum facilis pectus."
    },
    {
      "address": "130a Tập Thể Dược Phẩm 2, P. Đồng Nhân, Hai Bà Trưng, Hà Nội",
      "name": "Bếp Thỏ Xinh",
      "latitude": 21.01102116,
      "longitude": 105.85456489,
      "description": "Suasoria tabesco clamo aggredior. Curtus tunc ater stabilis delectatio acidus amissio summisse. Accusamus eveniet arcesso suscipit sponte dignissimos minima pel."
    },
    {
      "address": "91 Trần Đại Nghĩa, Hai Bà Trưng, Hà Nội",
      "name": "Mì Cay Seoul - Trần Đại Nghĩa",
      "latitude": 21.00482087,
      "longitude": 105.84564114,
      "description": "Tamquam atavus calco desolo supplanto benevolentia confugo. Adipisci id arbustum conspergo coniuratio. Celo ciminatio cura vado tepesco corrupti."
    },
    {
      "address": "Đối Diện 34 Thọ Lão, P. Đống Mác, Hai Bà Trưng, Hà Nội",
      "name": "Bún Bò Trộn & Bún Mạch Tràng - Thọ Lão",
      "latitude": 21.011496,
      "longitude": 105.857946,
      "description": "Modi cinis vesica. Aut demonstro iste denuncio auctus. Deprimo cerno peccatus."
    },
    {
      "address": "255 Phố Huế (Ngã Ba Phố Huế - Đoàn Trần Nghiệp), P. Phố Huế, Hai Bà Trưng, Hà Nội",
      "name": "SingResto - Cháo Ếch Singapore - Phố Huế",
      "latitude": 21.01185596,
      "longitude": 105.85175578,
      "description": "Cum atqui cruentus stella. Cotidie creptio cruentus sordeo anser amet appello calcar cupiditate. Deinde benevolentia thema concido."
    },
    {
      "address": "30 Thi Sách, P. Ngô Thì Nhậm, Hai Bà Trưng, Hà Nội",
      "name": "Mắm Quán - Chân Gà Chiên Mắm & Lẩu Sạch",
      "latitude": 21.016212,
      "longitude": 105.854138,
      "description": "Bestia ara tergeo dolor. Curiositas ea autus. Amiculum corona arbor utor."
    },
    {
      "address": "167 Lãng Yên, P. Thanh Lương, Hai Bà Trưng, Hà Nội",
      "name": "Dồi Nướng Đê Trần Khát Chân - Lãng Yên",
      "latitude": 21.008296,
      "longitude": 105.863605,
      "description": "Deserunt demoror trado alo contra tondeo carcer corroboro arceo repellendus. Concido talio arma incidunt vix eius summopere viridis verto. Sperno asper statua dedico arca decor."
    },
    {
      "address": "2 Ngõ 100 Trần Đại Nghĩa, P. Đồng Tâm, Hai Bà Trưng, Hà Nội",
      "name": "Chén Cả Thế Giới - Phố Bánh Gà & Chè - Trần Đại Nghĩa",
      "latitude": 20.997647,
      "longitude": 105.84564,
      "description": "Numquam exercitationem tempus acceptus volaticus custodia deputo. Cotidie tibi capitulus abscido allatus. Laudantium autus torrens."
    },
    {
      "address": "474 Trần Khát Chân, P. Thanh Nhàn, Hai Bà Trưng, Hà Nội",
      "name": "Tú Gà - Chân Gà Rang Muối - Trần Khát Chân",
      "latitude": 21.008951,
      "longitude": 105.853793,
      "description": "Alii vallum in videlicet sui teres. Derelinquo sufficio alveus uberrime thesaurus adsuesco cohibeo nostrum ultio suscipio. Defetiscor claro degusto blanditiis aestas."
    },
    {
      "address": "1 Ngõ Tô Hoàng, P. Cầu Dền, Hai Bà Trưng, Hà Nội",
      "name": "Thúy Vịt - Ngan & Vịt Các Món",
      "latitude": 21.006447,
      "longitude": 105.850736,
      "description": "Universe abscido barba beneficium undique soluta benigne adversus. Consequuntur casus pauci. Asper dolore vilis demulceo volo tabgo verbera tripudio facilis."
    },
    {
      "address": "464 Bạch Mai, P. Trương Định, Hai Bà Trưng, Hà Nội",
      "name": "Hansarang - Ẩm Thực Hàn Quốc",
      "latitude": 20.997986,
      "longitude": 105.850059,
      "description": "Theca cruentus aperio. Absconditus curtus tero vulticulus coma animi tribuo apto baiulus. Aegrus vulariter desparatus talio."
    },
    {
      "address": "57 Lạc Trung, P. Thanh Lương, Hai Bà Trưng, Hà Nội",
      "name": "Nét Huế - Lạc Trung",
      "latitude": 21.003294,
      "longitude": 105.866689,
      "description": "Comedo velit quod vestrum stips celer ademptio speculum certus triduana. Sono cetera depulso adamo canto degenero suscipit abscido. Paens tumultus peior virtus atavus vitiosus vulticulus dapifer abeo civitas."
    },
    {
      "address": "562 Trần Khát Chân, P. Phố Huế, Hai Bà Trưng, Hà Nội",
      "name": "Sườn Mười - Sườn Nướng BBQ - Trần Khát Chân",
      "latitude": 21.00877,
      "longitude": 105.851548,
      "description": "Temeritas tergum curriculum virtus quos terebro ipsam sum aspicio. Defendo animadverto depulso aspernatur contigo amita maxime adflicto ascisco commodo. Thesaurus ullus tolero thesis censura cunabula alveus cimentarius surgo."
    },
    {
      "address": "247 Trần Đại Nghĩa, P. Trương Định, Hai Bà Trưng, Hà Nội",
      "name": "Gimbab Hàn Quốc - Trần Đại Nghĩa",
      "latitude": 20.99726511,
      "longitude": 105.84598934,
      "description": "Appono desidero adsuesco constans officiis dapifer natus deleniti tero. Beneficium studio tametsi reprehenderit altus facere collum tui timor dedico. Degero cunctatio acervus."
    },
    {
      "address": "171 Phố Trần Đại Nghĩa, P. Bách Khoa, Hai Bà Trưng, Hà Nội",
      "name": "Gà Tươi Mạnh Hoạch - Trần Đại Nghĩa",
      "latitude": 21.00084441,
      "longitude": 105.84541657,
      "description": "Tertius adficio nobis vita torqueo caput cum cupiditas. Dedecor demum admoveo facilis colligo curto canto. Validus aduro averto vulnero tibi nisi."
    },
    {
      "address": "193 Dương Văn Bé, P. Vĩnh Phú, Hai Bà Trưng, Hà Nội",
      "name": "Gà Tươi Mạnh Nam - Dương Văn Bé",
      "latitude": 20.995279,
      "longitude": 105.874333,
      "description": "Tumultus ipsa virga. Congregatio tepidus tepidus curtus succurro cunctatio tonsor vulticulus modi verto. Tergum dolores dolorum amplitudo temeritas allatus."
    },
    {
      "address": "305 Trần Đại Nghĩa, P. Trương Định, Hai Bà Trưng, Hà Nội",
      "name": "Thiên Ân - Gà Mẹt & Gà Không Lối Thoát",
      "latitude": 20.996347,
      "longitude": 105.84571,
      "description": "Vulnero quam vicissitudo autem reprehenderit adinventitias. Tertius uterque adduco callide. Talis tum quaerat tempora desidero tremo voluptatum caute voluptatum alter."
    },
    {
      "address": "48 Vân Đồn, P.Bạch Đằng, Hai Bà Trưng, Hà Nội",
      "name": "Hoa Béo - Nem Nướng Ninh Hòa - Vân Đồn",
      "latitude": 21.01440823,
      "longitude": 105.86458381,
      "description": "Totidem terror careo aptus socius vitae. Terra absum alias depereo arbitro aegrotatio cur debilito conventus solum. Acies baiulus delectus amo denuncio decet hic sursum."
    },
    {
      "address": "109 Triệu Việt Vương, Hai Bà Trưng, Hà Nội",
      "name": "Tonchan Ramen - Mì Nhật",
      "latitude": 21.014122,
      "longitude": 105.850476,
      "description": "Cubitum auditor tamisium supplanto verto ante cuppedia decretum. Cupiditas totus deporto eveniet capto canis quibusdam perspiciatis. Molestias concido doloribus ago ars ater."
    },
    {
      "address": "8E6 Kim Ngưu, P. Quỳnh Mai, Hai Bà Trưng, Hà Nội",
      "name": "Gà Tươi Mạnh Hoạch - Kim Ngưu",
      "latitude": 21.00154542,
      "longitude": 105.8612898,
      "description": "Patrocinor denique vester tendo perferendis alo unde. Esse votum aurum ver ventosus. Copia ambitus vereor teneo."
    },
    {
      "address": "149 Lò Đúc, P. Đống Mác, Hai Bà Trưng, Hà Nội",
      "name": "Quán 20 - Bún Lòng & Chân Gà Rang Muối - Lò Đúc",
      "latitude": 21.01084556,
      "longitude": 105.85996118,
      "description": "Impedit suspendo cur id adduco commodi. Tantum apparatus verbum. Natus illum succedo verbum."
    },
    {
      "address": " Số 69 Ngõ Tự Do, P. Đồng Tâm, Hai Bà Trưng, Hà Nội",
      "name": "King Dakgalbi - Gà Xào Phô Mai - Ngõ Tự Do",
      "latitude": 20.9976162,
      "longitude": 105.84650202,
      "description": "Crustulum adeptio valetudo vapulus correptius. Sollicito vetus tamdiu constans aeger alias cubicularis. Tabgo nobis commodo allatus volo peior placeat comburo suffoco tabgo."
    },
    {
      "address": "13 Mai Hắc Đế, Hai Bà Trưng, Hà Nội",
      "name": "Nhà Hàng Phương Nam - Món Ngon Miền Nam - Mai Hắc Đế",
      "latitude": 21.016315,
      "longitude": 105.850859,
      "description": "Advoco vindico autus absum thesis angulus ventito voco. Altus vester caveo. Comminor abundans aeger vis amita vicinus administratio."
    },
    {
      "address": "16TT2A Ngõ 622 Minh Khai, Hai Bà Trưng, Hà Nội",
      "name": "Kim Kê Quán - Gà Nướng Lu",
      "latitude": 20.997874,
      "longitude": 105.871046,
      "description": "Sit pariatur velut dolor talus a perspiciatis et. Conspergo tertius modi tondeo debeo delibero. Ut termes volo dignissimos usus demonstro utor."
    },
    {
      "address": "287 Trần Đại Nghĩa, Hai Bà Trưng, Hà Nội",
      "name": "Bích Béo - Cháo Lòng & Bún Đậu",
      "latitude": 20.996225,
      "longitude": 105.845674,
      "description": "Aer cresco adsidue vitium crepusculum blandior vorax. Quia claudeo calamitas. Adsuesco suggero doloribus bestia arguo angelus."
    },
    {
      "address": "5 Phố Chùa Quỳnh, P. Quỳnh Mai, Hai Bà Trưng, Hà Nội",
      "name": "Hương Thảo - Lẩu Gà Lá É Đà Lạt",
      "latitude": 20.99963219,
      "longitude": 105.85745375,
      "description": "Turbo sapiente tergum hic argentum sono aurum vulnus curriculum. Provident similique ullam amicitia cado careo congregatio quo. Voluptatibus maxime soleo sursum voluptatum."
    },
    {
      "address": "63 Nguyễn Đình Chiểu, P. Lê Đại Hành, Hai Bà Trưng, Hà Nội",
      "name": "King Sushi & Lẩu - Nguyễn Đình Chiểu",
      "latitude": 21.0120184,
      "longitude": 105.8460895,
      "description": "Campana angustus strues aequus tot desidero tactus color candidus tibi. Sequi adhaero atavus depromo tres. Blandior tero defero timidus varietas provident."
    },
    {
      "address": "59 Trần Nhân Tông, P. Nguyễn Du, Hai Bà Trưng, Hà Nội",
      "name": "Furyu - Cơm & Ẩm Thực Nhật Bản - Trần Nhân Tông",
      "latitude": 21.0168715,
      "longitude": 105.8488644,
      "description": "Annus adsuesco tantillus terreo odit stips commodi. Agnosco solio conspergo collum damno acsi. Barba vox auxilium contigo patria."
    },
    {
      "address": "289 Trần Khát Chân, P. Thanh Nhàn, Hai Bà Trưng, Hà Nội",
      "name": "Bún Riêu Cua Út Phương - Trần Khát Chân",
      "latitude": 21.00897323,
      "longitude": 105.85860805,
      "description": "Cena solus desino. Tui deorsum amicitia spiculum suffragium apparatus aufero. Delibero correptius cunabula adipiscor corona amet ademptio acceptus esse."
    },
    {
      "address": " 8E6 Kim Ngưu, P. Quỳnh Mai, Hai Bà Trưng, Hà Nội",
      "name": "Phong Gà Quán - Gà Nướng Lu Chính Hiệu - Kim Ngưu",
      "latitude": 21.0013745,
      "longitude": 105.8612055,
      "description": "Patior consequuntur deprimo crastinus concedo ara. In vigilo cohaero minima conduco curiositas officiis. Magni traho una bene abbas auxilium minima vero adsuesco."
    },
    {
      "address": "301 Trần Đại Nghĩa, P. Trương Định, Hai Bà Trưng, Hà Nội",
      "name": "Ếch 46 - Lẩu Ếch Măng Cay",
      "latitude": 20.99590225,
      "longitude": 105.84556818,
      "description": "Uterque confido expedita conduco quas appello. Velum eveniet tum quas eum votum cado voveo vivo. Victus a maiores truculenter amicitia ex."
    },
    {
      "address": "Kiot 13  Quỳnh Mai, P.Quynh Mai, Hai Bà Trưng, Hà Nội",
      "name": "Bánh Cuốn Nóng Gà Tần Cháo Ngao - Bánh Cuốn, Gà, Cháo - Quỳnh Mai",
      "latitude": 21.0008348,
      "longitude": 105.8606695,
      "description": "Asporto coniuratio aperio paulatim cultura cribro est. Theatrum vesper absque curso tremo. Demulceo apto volo verto suus dapifer terga tamdiu."
    },
    {
      "address": "63 Trần Nhân Tông, P. Nguyễn Du, Hai Bà Trưng, Hà Nội",
      "name": "Trư Ký Hotpot - Lẩu 1 Người",
      "latitude": 21.0169877,
      "longitude": 105.8484864,
      "description": "Debeo ipsam adstringo calcar speciosus acidus deserunt. Valetudo studio cresco victus corporis. Centum timor tot placeat curis vorago cunabula."
    },
    {
      "address": "5C Trần Nhân Tông, P. Bùi Thị Xuân, Hai Bà Trưng, Hà Nội",
      "name": "Bánh Mì Thịt Xiên Nướng - Trần Nhân Tông",
      "latitude": 21.016811,
      "longitude": 105.850966,
      "description": "Vinum cupio ante demum consequuntur uredo vita sperno amiculum. Natus corporis clementia cauda conscendo vacuus placeat tener adicio. Ara assumenda degero recusandae."
    },
    {
      "address": "111 E7 TT. Bách Khoa, Tạ Quang Bửu, P. Bách Khoa, Hai Bà Trưng, Hà Nội",
      "name": "Lẩu Gà Lá É É É Thắng Béo",
      "latitude": 21.001625,
      "longitude": 105.849344,
      "description": "Bene nam celo texo mollitia toties. Curatio congregatio tabella omnis condico crebro sustineo. Calculus deripio tendo sortitus brevis vulnus."
    },
    {
      "address": "3 Ngõ Bà Triệu, P. Lê Đại Hành, Hai Bà Trưng, Hà Nội",
      "name": "Koh Yam - Thai Kitchen & Dessert - Bà Triệu",
      "latitude": 21.012578,
      "longitude": 105.848675,
      "description": "Aiunt dedico cuius. Animadverto cuppedia administratio tibi rem. Ab somnus volo ullam decimus velit vapulus."
    },
    {
      "address": "284 Bà Triệu, Hai Bà Trưng, Hà Nội",
      "name": "Nhà Hàng Lẩu Phát - Bà Triệu",
      "latitude": 21.012808,
      "longitude": 105.849112,
      "description": "Advoco praesentium conicio curriculum tristis clementia. Aeger verto altus cilicium surgo atavus. Denuo trado asperiores censura quos."
    },
    {
      "address": "236 - 238 Lạc Trung, Hai Bà Trưng, Hà Nội",
      "name": "Phở Thanh Hà - Lạc Trung",
      "latitude": 21.002989,
      "longitude": 105.86701,
      "description": "Illo communis titulus. Victoria audacia defleo summopere arguo dolores valens solitudo. Canto valeo vis terga confido tempora ocer suggero carcer nisi."
    },
    {
      "address": "2A Thái Phiên, Hai Bà Trưng, Hà Nội",
      "name": "Bò Nhúng Dấm - Thái Phiên",
      "latitude": 21.010604,
      "longitude": 105.84986,
      "description": "Distinctio substantia sollicito. Argumentum repudiandae id absum volva. Tabesco textilis ceno accedo tabella compono vacuus administratio adaugeo."
    },
    {
      "address": "113 Thanh Nhàn, P.Thanh Nhàn, Hai Bà Trưng, Hà Nội",
      "name": "Tiệm Nhà Táo - Gỏi Cuốn, Nem Nướng & Nước Ép - Thanh Nhàn",
      "latitude": 21.002716,
      "longitude": 105.8578078,
      "description": "Arx aspernatur claudeo calco ad sulum. Vesper aqua amita quibusdam cetera apud adduco totus. Verto abeo virgo accendo verumtamen uxor."
    },
    {
      "address": "35 Lê Đại Hành, P. Lê Đại Hành, Hai Bà Trưng, Hà Nội",
      "name": "Ngan Cham Chu - Thiên Hạ Đệ Nhất Ngan",
      "latitude": 21.01123,
      "longitude": 105.848658,
      "description": "Corroboro aliquid depono suscipio. Tripudio curriculum confido arbustum. Cometes vivo calculus teres vergo unde ocer."
    },
    {
      "address": "15 Nguyễn Du, P. Bùi Thị Xuân, Hai Bà Trưng, Hà Nội",
      "name": "Kói - Bò Nhúng Dấm",
      "latitude": 21.01832947,
      "longitude": 105.8508315,
      "description": "Conspergo caput solvo. Utrimque dedecor stipes cuius cruentus concedo impedit triumphus venio ante. Deripio talus ars commemoro."
    },
    {
      "address": "106E3 Lê Thanh Nghị, P. Bách Khoa, Hai Bà Trưng, Hà Nội",
      "name": "Lẩu Bee Phạm",
      "latitude": 21.001777,
      "longitude": 105.846224,
      "description": "Corpus vilitas curatio valens trado est usitas vulgus desipio. Sponte aedificium congregatio comitatus compono circumvenio uter acer ea. Velociter sodalitas vilicus peccatus."
    },
    {
      "address": "2C Thịnh Yên, P. Phố Huế, Hai Bà Trưng, Hà Nội",
      "name": "Ốc La Cà - Thịnh Yên",
      "latitude": 21.009752,
      "longitude": 105.851485,
      "description": "Pecus depono cupressus verbum creptio sub sonitus summa sapiente. Ipsa colligo talus adinventitias sono. Vilis tamisium cuppedia mollitia nemo tero vilis tres vado allatus."
    },
    {
      "address": "235 Trần Đại Nghĩa, P. Đồng Tâm, Hai Bà Trưng, Hà Nội",
      "name": "Minh Phương - Nem Nướng Nha Trang - Trần Đại Nghĩa",
      "latitude": 20.9974911,
      "longitude": 105.84608407,
      "description": "Dolores ratione theologus totidem solitudo deprimo vereor adhaero. Crux arcus territo tumultus abeo derideo. Tamisium cubitum unde curia verbera temperantia ustilo taceo spoliatio."
    },
    {
      "address": "602 Minh Khai, Hai Bà Trưng, Hà Nội",
      "name": "Phở Thanh Hà - Minh Khai",
      "latitude": 20.999171,
      "longitude": 105.870629,
      "description": "Tabesco abundans annus utrimque claustrum totam coerceo rerum vivo surgo. Deripio pecto adeptio cupio eligendi pecto. Compello triumphus concedo sto pecco fugiat abstergo aegre."
    },
    {
      "address": "Số 2 Hoa Lư, P. Lê Đại Hành, Hai Bà Trưng, Hà Nội",
      "name": "Bò Tơ Quán Mộc Cơ Sở 4 - 2 Hoa Lư",
      "latitude": 21.0102549,
      "longitude": 105.84772918,
      "description": "Ascisco ago validus comis texo ademptio amor complectus addo. Cetera adipiscor voluptatum curvo provident. Voluntarius tenetur adduco aurum."
    },
    {
      "address": "42 Lương Yên, P. Bạch Đằng, Hai Bà Trưng, Hà Nội",
      "name": "Cây Dâu - Thịt Xiên Nướng - 42 Lương Yên",
      "latitude": 21.011216,
      "longitude": 105.862705,
      "description": "Vero callide pecco occaecati tredecim vos quidem tantum. Arto attonbitus harum quibusdam validus suggero earum. Ventosus benigne supplanto cetera."
    },
    {
      "address": "11 Tạ Quang Bửu , Hai Bà Trưng, Hà Nội",
      "name": "Bánh Mì Thịt Xiên - Tạ Quang Bửu",
      "latitude": 21.0048173,
      "longitude": 105.84718991,
      "description": "Sponte numquam neque sopor auxilium animadverto comparo thorax. Admoveo aptus altus carpo patruus. Terreo ambitus calcar atqui tunc."
    },
    {
      "address": "111Y9 Ngõ 213 Phố Trần Đại Nghĩa, P.Đồng Tâm, Hai Bà Trưng, Hà Nội",
      "name": "MáLa MáLa - Lẩu Nướng Trung Hoa",
      "latitude": 20.99826641,
      "longitude": 105.84671523,
      "description": "Xiphias soluta cupiditate vulpes similique beneficium agnosco thermae. Urbs abduco censura aranea exercitationem architecto vesper. Venio tam quia crinis bene testimonium."
    },
    {
      "address": "2 Ngõ 183 Trần Đại Nghĩa, P. Đồng Tâm, Hai Bà Trưng, Hà Nội",
      "name": "Ốc Quỳnh - Ốc Mút & Chân Gà Nướng - 2 Ngõ 183 Trần Đại Nghĩa",
      "latitude": 20.999247,
      "longitude": 105.84558,
      "description": "Sint qui vel impedit adulatio defaeco demulceo aggero tutis. Accusamus celo possimus vito. Sunt vaco creo despecto peior."
    },
    {
      "address": "29 Nguyễn Đình Chiểu, P. Lê Đại Hành, Hai Bà Trưng, Hà Nội",
      "name": "PHỞ MUỐN - Phở Bò & Lẩu Bò - 29 Nguyễn Đình Chiểu",
      "latitude": 21.0146702,
      "longitude": 105.8472352,
      "description": "Callide surgo velum caritas. Exercitationem amo uter teneo facere aegre magnam. Spectaculum vorago commemoro debeo vulpes mollitia validus umerus teneo patruus."
    },
    {
      "address": "53 Trần Khát Chân, P. Bạch Đằng, Hai Bà Trưng, Hà Nội",
      "name": "Chân Gà Nướng Cô Thái - Trần Khát Chân",
      "latitude": 21.00891237,
      "longitude": 105.86458136,
      "description": "Defero a conicio. Modi error admoneo timidus degenero curtus angelus. Armarium tergeo modi creptio suadeo cimentarius tepidus nesciunt."
    },
    {
      "address": "312 Phố Minh Khai, P. Mai Động  ( Gần Cầu Mai Động ), Hai Bà Trưng, Hà Nội",
      "name": "Umai Sushi Tiệm Ăn Nhật Bản - Thực Phẩm - Minh Khai",
      "latitude": 20.9957467,
      "longitude": 105.861357,
      "description": "Utor subseco teres. Deleo cognatus carus aut admitto ceno. Vomica claudeo defungo creber solium nesciunt."
    },
    {
      "address": "103K9 Nguyễn Hiền, P. Bách Khoa, Hai Bà Trưng, Hà Nội",
      "name": "Nem Nướng Nha Trang Bách Kinh Xây - Nguyễn Hiền",
      "latitude": 21.00091743,
      "longitude": 105.84740448,
      "description": "Carus necessitatibus provident. Complectus numquam sono causa bibo. Virgo adopto tondeo celebrer ademptio."
    },
    {
      "address": "39 Ngõ 27 Đại Cồ Việt, P. Cầu Dền, Hai Bà Trưng, Hà Nội",
      "name": "Bò Nầm Nướng Hải Phạm - 39 Ngõ 27 Đại Cồ Việt",
      "latitude": 21.0073233,
      "longitude": 105.8491673,
      "description": "Deserunt terra cui depereo agnitio velit. Depraedor trans tyrannus calamitas. Conventus defluo aer viduo explicabo deputo correptius thymum comparo."
    },
    {
      "address": "26 Ngõ 44 Đại La, P. Trương Định, Hai Bà Trưng, Hà Nội",
      "name": "Tiệm Nhà Chun - Mì Indomie, Kimbap & Trà Sữa",
      "latitude": 20.99711085,
      "longitude": 105.84889592,
      "description": "Uterque decretum id timidus tredecim quos verumtamen pel vetus. Collum antiquus ipsum cavus thymbra bene. Desipio administratio sequi custodia."
    },
    {
      "address": "Kiot 15, Ngõ 124 Vĩnh Tuy, P. Vĩnh Tuy, Hai Bà Trưng, Hà Nội",
      "name": "Mỳ Cay & Lẩu Cốc - Topokki Tiệm 1991",
      "latitude": 21.0007552,
      "longitude": 105.8768025,
      "description": "Tabella cribro cultellus aeternus. Appositus campana artificiose aeger aequus villa cometes alioqui communis umquam. Sopor cernuus bellicus impedit nobis vomer pecco."
    },
    {
      "address": "18 Tam Trinh, P. Minh Khai, Hai Bà Trưng, Hà Nội",
      "name": "Bếp Ngon Cô Liên - Lẩu & Cơm - 18 Tam Trinh",
      "latitude": 20.99377603,
      "longitude": 105.86210905,
      "description": "Crur allatus dedico. Tamdiu placeat comburo sollicito. Acervus tergeo comis claudeo valetudo creber triduana blandior clibanus valens."
    },
    {
      "address": "102 Ngõ 84 Phố 8/3, P. Quỳnh Mai, Hai Bà Trưng, Hà Nội",
      "name": "Nem Nướng Nha Trang 79 - Phố 8/3",
      "latitude": 21.00070672,
      "longitude": 105.85933483,
      "description": "Ago ancilla xiphias. Bellicus cenaculum crustulum spiritus adamo supellex. Cuppedia adversus vaco verus adinventitias."
    },
    {
      "address": "107BY9 Ngõ Tự Do, P. Đồng Tâm, Hai Bà Trưng, Hà Nội",
      "name": "Quán Cơm Tự Do - Cơm Gà & Cơm Rang",
      "latitude": 20.9990806,
      "longitude": 105.84783736,
      "description": "Deripio amiculum pecco cohibeo. Balbus adficio torrens templum inventore balbus pax una tum. Adflicto tergeo animadverto."
    },
    {
      "address": "9 Trần Khánh Dư, P. Bạch Đằng, Hai Bà Trưng, Hà Nội",
      "name": "Bảo Quốc Quán - Lẩu & Các Món Nhậu",
      "latitude": 21.013846590004,
      "longitude": 105.862674638623,
      "description": "Ver taceo alii ceno quaerat beatae cervus. Ars temperantia adopto turpis titulus debitis. Doloremque adhaero comitatus."
    },
    {
      "address": "Chung Cư 124 Minh Khai, P.Minh Khai, Hai Bà Trưng, Hà Nội",
      "name": "Bánh Đa Cua Trộn & Nem Nướng Nha Trang - 124 Minh Khai",
      "latitude": 20.99547787,
      "longitude": 105.85274132,
      "description": "Una creator alienus ascit clamo culpa culpo. Sui vomica victoria suggero acervus delego vox aggero corrigo altus. Admoveo dedecor cornu dedico eius magnam armarium sustineo."
    },
    {
      "address": "5 Lò Đúc, Hai Bà Trưng, Hà Nội",
      "name": "Lẩu Ếch Lò Đúc",
      "latitude": 21.018252,
      "longitude": 105.855119,
      "description": "Deleo repudiandae carpo thymum abeo. Tracto fugit apparatus. Consequatur aro asporto."
    },
    {
      "address": "162 Nguyễn An Ninh, P. Đồng Tâm, Hai Bà Trưng, Hà Nội",
      "name": "Nem nướng Nha Trang Béo Lung - Nguyễn An Ninh",
      "latitude": 20.9944003,
      "longitude": 105.84250597,
      "description": "Annus antepono debilito decumbo arbustum derideo. Curtus vobis ratione culpa unus. Spiculum suasoria thymbra."
    },
    {
      "address": "339 Trần Khát Chân, P. Thanh Nhàn, Hai Bà Trưng, Hà Nội",
      "name": "Chả Cá Gia Nguyễn",
      "latitude": 21.009044,
      "longitude": 105.857148,
      "description": "Termes tui tonsor auxilium aqua eius. Verus abstergo balbus charisma synagoga cenaculum. Subnecto suspendo sursum."
    },
    {
      "address": "15 Chùa Quỳnh, Hai Bà Trưng, Hà Nội",
      "name": "MIN - Lẩu Sạch & Chân Cánh Gà",
      "latitude": 20.99963447,
      "longitude": 105.85744421,
      "description": "Defessus adeptio attollo laboriosam varietas umquam magni. Cubicularis terra vulgus impedit viscus despecto. Coniecto callide unus ea."
    },
    {
      "address": "Kiot 9B Green Pearl 378 Minh Khai, P. Vĩnh Tuy, Hai Bà Trưng, Hà Nội",
      "name": "Cô Thuỷ Béo - Bún Riêu Tóp Mỡ Sườn Sụn & Đặc Sản Lẩu Cua Đồng - Minh Khai",
      "latitude": 20.9964837,
      "longitude": 105.86354777,
      "description": "Synagoga advenio admoneo vaco acceptus spiritus. Crinis sapiente vulariter sumo spargo tamdiu viduo vicinus tenax aveho. Summisse velociter velociter abstergo sed peior vivo."
    },
    {
      "address": "227 Trần Đại Nghĩa, P. Đồng Tâm, Hai Bà Trưng, Hà Nội",
      "name": "Phúc Vịt - Đặc Sản Vịt",
      "latitude": 20.99779311,
      "longitude": 105.84615822,
      "description": "Doloribus torqueo caterva clibanus vindico allatus theologus taedium. Adsuesco viriliter vociferor. Urbs dignissimos arguo."
    },
    {
      "address": "Ngõ 622 Minh Khai, P. Vĩnh Tuy, Hai Bà Trưng, Hà Nội",
      "name": "Phở Đắc - 103 Tòa Nhà Amber Riverside",
      "latitude": 20.997239,
      "longitude": 105.8711492,
      "description": "Vestigium vulgivagus vicinus. Minima eius callide cum a vulnus comparo tremo. Quo a fuga acies."
    },
    {
      "address": "105Y9 - Tập Thể Kinh Tế Quốc Dân, Hai Bà Trưng, Hà Nội",
      "name": "Dũng Béo - Nem Nướng Nha Trang, Lẩu & Ốc Nóng",
      "latitude": 20.998228,
      "longitude": 105.846552,
      "description": "Ventito comptus defero magnam esse. Dolore sonitus conspergo auxilium conor tabula. Statua catena temporibus advoco quia corporis quasi convoco."
    },
    {
      "address": "2 Thái Phiên, Hai Bà Trưng, Hà Nội",
      "name": "Đèn Lồng Quán - Lẩu Thái Tomyum",
      "latitude": 21.01056474,
      "longitude": 105.8512608,
      "description": "Esse curiositas modi. Universe correptius adstringo earum deinde quis. Casso aranea audio."
    },
    {
      "address": "58 Trần Xuân Soạn, P. Phạm Đình Hổ, Hai Bà Trưng, Hà Nội",
      "name": "SBT Sabay Thai - Ẩm Thực Thái Lan & Lẩu Thái - Trần Xuân Soạn",
      "latitude": 21.0170237,
      "longitude": 105.8533067,
      "description": "Stabilis surgo temporibus caste. Suppono demitto rerum numquam illum quibusdam cruentus. Quia cernuus thalassinus tepesco agnitio."
    },
    {
      "address": "P4 - Nhà 8, Tập Thể Đại Học KTQD, Ng. Tự Do, P. Đồng Tâm, Hai Bà Trưng, Hà Nội",
      "name": "Miu Xi - Ăn Vặt & Lẩu - Tập Thể Đại Học Kinh Tế Quốc Dân",
      "latitude": 20.99904,
      "longitude": 105.84785,
      "description": "Et cubitum verto cetera eveniet sequi traho curia. Depraedor claudeo ullus cauda unus adamo consequuntur suffoco confero. Pauper ipsum adsuesco."
    },
    {
      "address": "81 - 85 Đại Cồ Việt, Hai Bà Trưng, Hà Nội",
      "name": "Nhắng Nướng - Đại Cồ Việt",
      "latitude": 21.0077954,
      "longitude": 105.8453462,
      "description": "Attero admitto confugo claudeo caecus depereo sortitus absque alter. Asper corpus defetiscor. Turpis aeternus ante adinventitias vulnus placeat ventosus alveus illum."
    },
    {
      "address": "19 Đoàn Trần Nghiệp, P. Lê Đại Hành, Hai Bà Trưng, Hà Nội",
      "name": "Bò Nhúng Zấm Huyền Xẩm - Đoàn Trần Nghiệp",
      "latitude": 21.01207831,
      "longitude": 105.84827054,
      "description": "Casus campana tergum adipiscor blandior derelinquo optio. Tener cito suggero cultellus. Veniam circumvenio distinctio arcus aer adsidue nam peior."
    },
    {
      "address": "42 Đoàn Trần Nghiệp, P. Lê Đại Hành, Hai Bà Trưng, Hà Nội",
      "name": "SC Quán - Cơm Gà & Lẩu Nướng - 42 Đoàn Trần Nghiệp",
      "latitude": 21.01194427,
      "longitude": 105.8484729,
      "description": "Vinco spiritus cuppedia umbra aegre vaco virgo confugo thalassinus caries. Vir clarus eum condico qui neque atrox addo autem. Antea turpis copiose sub."
    },
    {
      "address": "378 Trần Khát Chân, Hai Bà Trưng, Hà Nội",
      "name": "Đệ Nhất Quán - Lẩu Ếch",
      "latitude": 21.00925178,
      "longitude": 105.85736051,
      "description": "Damnatio accendo tremo approbo deludo. Carbo nobis summisse acervus sumptus. Sit aeternus comburo aegrus creator voluptas."
    },
    {
      "address": "233 Trần Đại Nghĩa, Hai Bà Trưng, Hà Nội",
      "name": "Nhà Hàng Việt Chinh - Chuyên Vịt Cỏ Vân Đình",
      "latitude": 20.997783,
      "longitude": 105.845976,
      "description": "Arceo adaugeo suasoria distinctio demens. Comprehendo coadunatio ultra tam amiculum conscendo bonus careo peccatus. Vespillo defungo cogito velut acceptus sint vehemens dolorum cresco."
    },
    {
      "address": "1A Tăng Bạt Hổ, P. Phạm Đình Hồ, Hai Bà Trưng, Hà Nội",
      "name": "Bò Tơ Quán Mộc Cơ Sở 9 - 1A Tăng Bạt Hổ",
      "latitude": 21.01789474,
      "longitude": 105.85853455,
      "description": "Vobis itaque auditor corpus ex demoror amet. Certus brevis toties voluptatum credo. Neque vallum trucido congregatio vaco terra toties."
    },
    {
      "address": "Số Nhà 85 Ngách 41 Ngõ 622 Minh Khai, P. Vĩnh Tuy, Hai Bà Trưng, Hà Nội",
      "name": "Lòng Việt Quán - Cháo Lòng, Bún Lòng & Lẩu Cháo Lòng",
      "latitude": 20.99600231,
      "longitude": 105.87163199,
      "description": "Claustrum textor confero cupressus ulterius benigne dolor desolo ex cattus. Tui campana absque corroboro conqueror canonicus aeger cribro acer. Vapulus valde taceo ascit vel complectus adsidue explicabo usus."
    },
    {
      "address": "76A Mai Hắc Đế, P. Bùi Thị Xuân, Hai Bà Trưng, Hà Nội",
      "name": "Vua Chả Cá - Mai Hắc Đế",
      "latitude": 21.01389,
      "longitude": 105.851009,
      "description": "Tego conforto tredecim ciminatio templum conspergo quis cervus vacuus cenaculum. Tremo doloribus saepe deorsum adfectus uredo demo temeritas canto temperantia. Terminatio explicabo concedo texo undique conitor trado hic ocer."
    },
    {
      "address": "331 Trần Khát Trân, P. Thanh Nhàn, Hai Bà Trưng, Hà Nội",
      "name": "Nam Dương Tửu - Trần Khát Trân",
      "latitude": 21.008928,
      "longitude": 105.857398,
      "description": "Tollo pax deprecator defleo denique comprehendo. Ventus curtus a molestiae tolero velut supra cum patria adamo. Creber totam tandem solio aurum."
    },
    {
      "address": "76 Bùi Thị Xuân, P. Bùi Thị Xuân, Hai Bà Trưng, Hà Nội",
      "name": "Hamako - Soup Bào Ngư Vi Cá - Bùi Thị Xuân",
      "latitude": 21.0154375,
      "longitude": 105.8497516,
      "description": "Carus quae una degusto paulatim confido ullam. Laboriosam dicta voco inflammatio cattus anser baiulus assumenda thermae. Sto modi avaritia voluptatem sit cras theologus carpo."
    },
    {
      "address": "425B Bạch Mai, P. Trương Định, Hai Bà Trưng, Hà Nội",
      "name": "Bò Nầm Nướng Nhung Xinh - Anh Cẩu - Bạch Mai",
      "latitude": 20.9982762,
      "longitude": 105.8503471,
      "description": "Solum termes angelus. Celer colligo tracto cenaculum triduana teneo. Tutamen sulum suscipit aiunt aufero spectaculum temperantia tempora vito."
    },
    {
      "address": "16 Nguyễn Đình Chiểu, P. Lê Đại Hành, Hai Bà Trưng, Hà Nội",
      "name": "Mani Thai - Ẩm Thực Thái Lan",
      "latitude": 21.01430748,
      "longitude": 105.84700077,
      "description": "Arx decerno absconditus aestas thalassinus armarium iure comitatus careo. Debilito suasoria depromo ullus apparatus amor textor. Alo tamquam similique concedo debeo tero."
    },
    {
      "address": "Tầng 1, Tầng 1, T3 Times City, 458 Minh Khai, P. Vĩnh Tuy, Hai Bà Trưng, Hà Nội",
      "name": "Nhà Huế - Times City",
      "latitude": 20.99536,
      "longitude": 105.869482,
      "description": "Canonicus absum surculus solvo ago contego. Commemoro solium curtus cuius cur accusator. Tabella vester coaegresco atque venio defleo callide universe vaco."
    },
    {
      "address": "17 Lô TT2A Ngõ 622 Minh Khai, Khu Biệt Thự Liền Kề Times City, P. Vĩnh Tuy, Hai Bà Trưng, Hà Nội",
      "name": "Phố Hàng Quà - Lẩu Việt & Gà Nướng Lu",
      "latitude": 20.997671,
      "longitude": 105.870938,
      "description": "Conicio tamen terror colo cultellus demergo thermae. Astrum qui desidero auctor. Stultus voluptatum ustulo."
    },
    {
      "address": "Ngõ 31 Trần Bình Trọng, P. Nguyễn Du, Hai Bà Trưng, Hà Nội",
      "name": "Lẩu Thái 31 - Mỳ Thái Tomyum & Lẩu 1 Người",
      "latitude": 21.018881,
      "longitude": 105.8441409,
      "description": "Spiculum terreo cunae eius tollo tum magni. Temptatio facere tenetur. Vae canis comminor damno subvenio ad sublime somnus cometes umbra."
    },
    {
      "address": "61 Đại Cồ Việt, Hai Bà Trưng, Hà Nội",
      "name": "Bò Ngon Phú Quý",
      "latitude": 21.0078987241504,
      "longitude": 105.846225321293,
      "description": "Nesciunt adsuesco averto catena terga perferendis placeat verus peior quia. Sonitus acerbitas ipsam vitae venustas qui saepe vicissitudo. Sumo ullus adipiscor canis cometes angelus."
    },
    {
      "address": "80 Ngô Thì Nhậm, P. Phạm Đình Hổ, Hai Bà Trưng, Hà Nội",
      "name": "Lẩu Quỳnh - Lẩu Thái Hải Sản",
      "latitude": 21.015137,
      "longitude": 105.853178,
      "description": "Bellicus canonicus ratione tracto delectus repudiandae desparatus deficio cursim totidem. Odit virgo adicio adulescens thermae alias impedit explicabo tricesimus. Sophismata cometes accusator debilito vomito commodo sum alienus quae collum."
    },
    {
      "address": "74 Bùi Thị Xuân, P. Nguyễn Du, Hai Bà Trưng, Hà Nội",
      "name": "Kiều Quán - 74 Bùi Thị Xuân",
      "latitude": 21.0155464,
      "longitude": 105.8497974,
      "description": "Dolorum abeo utique versus sopor vesper. Absum cattus praesentium adaugeo debeo. Tripudio qui tantillus caveo."
    },
    {
      "address": "478 Minh Khai, P. Vĩnh Tuy, Hai Bà Trưng, Hà Nội",
      "name": "Hải Sản Vạn Chài - Shop Online",
      "latitude": 20.997161,
      "longitude": 105.86656,
      "description": "Termes creator copia aduro arbor crur super. Desparatus sursum comburo torrens vacuus tamquam. Adulatio tamisium dignissimos."
    },
    {
      "address": "325 Trần Đại Nghĩa, P. Trương Định, Hai Bà Trưng, Hà Nội",
      "name": "Lẩu Sơn Tùng",
      "latitude": 20.995334,
      "longitude": 105.84531,
      "description": "Debeo suadeo deleniti. Suscipit infit vere adnuo pel vae arca esse. Facilis solutio attero cohibeo distinctio."
    },
    {
      "address": "52 Yên Bái 2, P. Phố Huế, Hai Bà Trưng, Hà Nội",
      "name": "Bún Bò Nam Bộ - Hai Chị Em - 52 Yên Bái 2",
      "latitude": 21.0092667,
      "longitude": 105.8522145,
      "description": "Asper vestigium cultellus bene utilis bardus ara ducimus argumentum copiose. Aliquam possimus corpus debeo tenax. Textilis cometes amo caute aperiam debitis crustulum."
    },
    {
      "address": "277 Trần Đại Nghĩa , Hai Bà Trưng, Hà Nội",
      "name": "Quán Toàn Béo - Ngan, Gà, Vịt",
      "latitude": 20.99636113,
      "longitude": 105.84564596,
      "description": "Adeo aspicio aeneus clamo tam. Cui cattus campana torqueo cetera. Voluntarius amissio copia vir audentia usitas subvenio terga debeo."
    },
    {
      "address": "57 Trần Xuân Soạn, P. Phạm Đình Hổ, Hai Bà Trưng, Hà Nội",
      "name": "Bún Riêu Cô Hương Béo - Trần Xuân Soạn",
      "latitude": 21.01681497,
      "longitude": 105.85314842,
      "description": "Concido aqua arca canis despecto approbo summisse somnus pax argentum. Asper vulgus curtus tracto ulciscor vitium urbanus vigor. Triduana valetudo tantillus."
    },
    {
      "address": "54B Hàng Chuối, P. Đình Hồ, Hai Bà Trưng, Hà Nội",
      "name": "Quán M81 - Thịt Xiên Nướng - Hàng Chuối",
      "latitude": 21.0152953,
      "longitude": 105.8580234,
      "description": "Utpote testimonium absum patrocinor ventito verus asper degenero sapiente terga. Decipio vix basium videlicet patior custodia synagoga sodalitas. Alo tergum arbitro fugiat canis ater voluptatibus ara absorbeo."
    },
    {
      "address": "91B Võ Thị Sáu, P. Thanh Nhàn, Hai Bà Trưng, Hà Nội",
      "name": "TuGi - Đồ Hàn & Lẩu Nướng",
      "latitude": 21.00707668,
      "longitude": 105.85482484,
      "description": "Cupiditas ad derelinquo coerceo tergeo vereor tumultus urbs conservo. Uxor aegre placeat crebro defleo adfero conventus aperio quas. Texo autus libero vivo impedit denique."
    },
    {
      "address": "4/238 Dương Văn Bé, P. Vĩnh Tuy, Hai Bà Trưng, Hà Nội",
      "name": "Lẩu Thái Tomyum - Dương Văn Bé",
      "latitude": 20.99995877,
      "longitude": 105.87215459,
      "description": "Viriliter vulpes tolero adopto. Circumvenio coepi auctus appono adsuesco corrupti certe. Ea aegrus vitae absum decens eaque alioqui vergo coepi."
    },
    {
      "address": "11 Vân Đồn, P. Bạch Đằng, Hai Bà Trưng, Hà Nội",
      "name": "Ruby - Thịt Xiên Nướng & Cháo Sườn Sụn",
      "latitude": 21.014233,
      "longitude": 105.864797,
      "description": "Victoria repudiandae similique spes vindico antiquus tondeo substantia sollers. Assentator denuo derelinquo aegre dolore cunctatio. Viscus viscus virga."
    },
    {
      "address": "9A1 Tạ Quang Bửu, P. Bách Khoa, Hai Bà Trưng, Hà Nội",
      "name": "Bún Riêu Truyền Thống Bà Tam - Tạ Quang Bửu",
      "latitude": 21.0024983,
      "longitude": 105.8487788,
      "description": "Advenio careo triduana. Vindico artificiose tenuis viduo quod. Derelinquo celo agnosco demitto sed."
    },
    {
      "address": "83 Tuệ Tĩnh, P. Lê Đại Hành, Hai Bà Trưng, Hà Nội",
      "name": "Vị Xưa - Ẩm Thực Ba Miền",
      "latitude": 21.015199,
      "longitude": 105.848021,
      "description": "Culpo suscipio curiositas. Suscipio vel sto alo cupiditate. Vinum coniuratio summa condico terreo."
    },
    {
      "address": "7 Lô TT2A Ngõ 622 Minh Khai, P. Vĩnh Tuy, Hai Bà Trưng, Hà Nội",
      "name": "Ông Béo - Lẩu Nướng Online",
      "latitude": 20.996675,
      "longitude": 105.87101,
      "description": "Bestia totam vigor tenetur aeneus spectaculum uterque. Verus dedico cuppedia. Caritas numquam inflammatio accedo damno acies."
    },
    {
      "address": "228 Dương Văn Bé, P. Vĩnh Tuy, Hai Bà Trưng, Hà Nội",
      "name": "Gà Nướng Lu X Ô - 228 Dương Văn Bé",
      "latitude": 20.996052,
      "longitude": 105.873926,
      "description": "Quidem crinis caute dignissimos. Vesco cruciamentum repellat adsum et acidus. Canis vicinus veritas ventito dedecor totus eum."
    },
    {
      "address": "13 - 15 Ngô Thì Nhậm, P. Ngô Thì Nhậm, Hai Bà Trưng, Hà Nội",
      "name": "Chaka Restaurant - Nhà Hàng Chả Cá",
      "latitude": 21.017706,
      "longitude": 105.852966,
      "description": "Causa adhaero videlicet advenio. Cupressus perferendis fuga voluptatem. Vapulus texo cinis."
    },
    {
      "address": "Shophouse 6, CC Amber Riverside, Ngõ 622 Minh Khai, P. Vĩnh Tuy, Hai Bà Trưng, Hà Nội",
      "name": "Bún Riêu Cô Hương Béo - Minh Khai",
      "latitude": 20.9975334,
      "longitude": 105.871109,
      "description": "Arx pariatur tergiversatio repudiandae repellat. Adsuesco cornu credo cicuta valens. Usque audentia crinis suffoco ambitus voluptates."
    },
    {
      "address": "Số 2 Lương Yên, Hai Bà Trưng, Hà Nội",
      "name": "Bún Chả Phú Mỹ - Bún Chả - Số 2 Lương Yên",
      "latitude": 21.0127772,
      "longitude": 105.8628122,
      "description": "Cogo audacia tamen vir cometes voluptatum. Exercitationem animus adsuesco adipisci contigo cum vito tres. Fugit libero minima tandem carbo tergeo vetus conspergo ullus celer."
    },
    {
      "address": "377 Trần Khát Chân, P. Thanh Nhàn, Hai Bà Trưng, Hà Nội",
      "name": "Lẩu 377 - Bò Nhúng Giấm",
      "latitude": 21.0091036,
      "longitude": 105.856816,
      "description": "Vel voro derelinquo illo decipio. Qui accommodo decor consectetur centum contigo vesper. Laboriosam perspiciatis correptius ipsam defetiscor decens est agnosco cado."
    },
    {
      "address": "35 Lãng Yên, P. Thanh Lương, Hai Bà Trưng, Hà Nội",
      "name": "Hàu Nướng - 35 Lãng Yên",
      "latitude": 21.00940568,
      "longitude": 105.86712737,
      "description": "Conspergo complectus turpis substantia vel verecundia talio defaeco dolores charisma. Thesis defaeco conqueror tracto appositus alienus contabesco cauda. Circumvenio trado civis brevis."
    },
    {
      "address": "46 Trần Xuân Soạn, P. Phạm Đình Hổ, Hai Bà Trưng, Hà Nội",
      "name": "Lẩu Bò Nhúng Dấm Khói - Lẩu Bò Nhúng Dấm - Trần Xuân Soạn",
      "latitude": 21.0170169,
      "longitude": 105.8538552,
      "description": "Ullus accusantium subnecto suasoria arbustum ait. Cunctatio temperantia quas alter degusto iste sumptus stips. Doloremque aiunt alveus tondeo valetudo verecundia."
    },
    {
      "address": "823 Bạch Đằng, P. Bạch Đằng, Hai Bà Trưng, Hà Nội",
      "name": "Trâu Tơ Tây Bắc",
      "latitude": 21.010856,
      "longitude": 105.867407,
      "description": "Tantillus anser volutabrum. Vinum praesentium canis veritas clementia tabgo cogito solum ascit tredecim. Aperio contabesco contigo optio cubo."
    },
    {
      "address": "19 Vân Hồ 2, P. Lê Đại Hành, Hai Bà Trưng, Hà Nội",
      "name": "Mỹ Vị Quán Cổ Trấn Trà",
      "latitude": 21.012099,
      "longitude": 105.846185,
      "description": "Adimpleo sumo adnuo ventito arcus teres apto comparo. Abduco compono volutabrum. Creptio turba totam casso nam conduco."
    },
    {
      "address": "461 Minh Khai , P. Vĩnh Tuy, Hai Bà Trưng, Hà Nội",
      "name": "Bà Rơm – Bún nem nướng Nha Trang – Minh Khai",
      "latitude": 20.9987046806518,
      "longitude": 105.8676656954777,
      "description": "Carcer vis vacuus voluntarius testimonium aureus amitto canonicus atavus turbo. Audeo creo cunabula aegre tergeo vere cura tremo sint. Torrens coadunatio pecus molestiae amoveo tres necessitatibus angustus admoneo cognatus."
    },
    {
      "address": "238 Lò Đúc, P. Đống Mác, Hai Bà Trưng, Hà Nội",
      "name": "Ngan Quê, Phở Gà Đông Tảo & Lẩu Gà - Lò Đúc",
      "latitude": 21.009977,
      "longitude": 105.860535,
      "description": "Tener tot cavus tactus utor terreo cicuta voro sustineo. Pectus trado adinventitias conscendo curiositas magni tabesco verus aeternus termes. Absque culpo similique subito suggero."
    },
    {
      "address": "Ngã 4 Thọ Lão, P.  Hương Viên, Hai Bà Trưng, Hà Nội",
      "name": "Thịt Xiên Nướng - Thọ Lão",
      "latitude": 21.011022,
      "longitude": 105.85649,
      "description": "Auxilium venia culpa distinctio coaegresco volutabrum cuius tam. Sit validus crustulum vero nulla ulterius sum. Venia strues vestigium apostolus."
    },
    {
      "address": "23 Trần Xuân Soạn, Hai Bà Trưng, Hà Nội",
      "name": "Viên Thả Lẩu Malaysia - 3ae Foods - Trần Xuân Soạn",
      "latitude": 21.01634,
      "longitude": 105.85475,
      "description": "Solium ut contabesco aer dedico terebro aegrus exercitationem temptatio. Theatrum color titulus. Exercitationem caste adipisci stella fuga ocer patria degusto."
    },
    {
      "address": "122 Lò Đúc, P. Đống Mác, Hai Bà Trưng, Hà Nội",
      "name": "Út Gạo - Bánh Canh Ghẹ Tươi - Lò Đúc",
      "latitude": 21.013295,
      "longitude": 105.858055,
      "description": "Nostrum coadunatio optio culpo tredecim. Abduco tertius carpo studio coadunatio cunabula confugo caelestis depopulo quasi. Volaticus curis compono videlicet."
    },
    {
      "address": "4/26 Thọ Lão, P. Đống Mác, Hai Bà Trưng, Hà Nội",
      "name": "Nocdee - Lẩu Tự Sôi Hà Nội",
      "latitude": 21.011438,
      "longitude": 105.8572978,
      "description": "Cui consuasor quasi tondeo claustrum condico aro vestigium. Sollicito cerno cena deprecator delinquo animi cometes dedecor corroboro. Quas accusator adsuesco candidus."
    },
    {
      "address": "74 Trương Định, Hai Bà Trưng, Hà Nội",
      "name": "Nướng Nhà Mắm - Lẩu & Nướng",
      "latitude": 20.99412,
      "longitude": 105.849665,
      "description": "Terga defungo tempus non animi testimonium vilicus. Tredecim tabernus somnus non eum vicinus acervus vulticulus baiulus vergo. Turpis aspernatur uxor."
    },
    {
      "address": "128 Nguyễn Khoái, P. Thanh Lương, Hai Bà Trưng, Hà Nội",
      "name": "Taca - Lẩu Nướng Ship",
      "latitude": 21.0075,
      "longitude": 105.8669,
      "description": "Denique cunctatio nemo viduo collum caecus delectus. Cribro thymum carbo autus voluptatem quidem clibanus abbas. Sit similique aetas valens arcesso tristis theca cui."
    },
    {
      "address": "178 Triệu Việt Vương, P. Bùi Thị Xuân, Hai Bà Trưng, Hà Nội",
      "name": "Fenghuang - Triệu Việt Vương",
      "latitude": 21.012641,
      "longitude": 105.850388,
      "description": "Angelus currus deporto iusto versus adficio veniam aureus repellendus. Aureus annus thermae utique aranea. Sublime curso titulus speculum carpo abstergo consequatur quam vado terebro."
    },
    {
      "address": "73 Lương Yên, P. Bạch Đằng, Hai Bà Trưng, Hà Nội",
      "name": "Thịt Xiên Bà Ngoại - Lương Yên",
      "latitude": 21.00925584,
      "longitude": 105.86329266,
      "description": "Traho verus iure conventus derelinquo carcer. Temeritas quasi admoveo substantia ait cognatus cubitum adamo aspicio agnosco. Trans audacia cultura solutio."
    },
    {
      "address": "15 Tô Hiến Thành, P. Bùi Thị Xuân, Hai Bà Trưng, Hà Nội",
      "name": "Wabi Sabi Vườn Nhật",
      "latitude": 21.013518,
      "longitude": 105.851115,
      "description": "Cohaero sed maxime accusamus sto vespillo vulgus acsi. Et dignissimos angelus conitor stillicidium terreo cilicium ancilla cernuus. Spiculum clibanus cunae nihil attollo."
    },
    {
      "address": "56 Ngõ Tự Do, P. Trương Định, Hai Bà Trưng, Hà Nội",
      "name": "Bánh Mì Thịt Xiên Nướng - Tự Do",
      "latitude": 20.99730118,
      "longitude": 105.84635404,
      "description": "Strues voluptatibus ascit. Similique patrocinor audeo aestivus esse thymbra. Deprimo vitae ascit canonicus adsum."
    },
    {
      "address": " 205 Lò Đúc, P. Đống Mác, Hai Bà Trưng, Hà Nội",
      "name": "Lẩu My - Lò Đúc",
      "latitude": 21.0093705153047,
      "longitude": 105.861427197795,
      "description": "Suscipit clarus pel consectetur cotidie reprehenderit spiritus tutamen. Adulatio comedo auctor cuppedia inflammatio deserunt. Uterque sodalitas delectatio teneo qui conscendo condico cumque ad tres."
    },
    {
      "address": "112 E5 Tạ Quang Bửu, P. Bách Khoa, Hai Bà Trưng, Hà Nội",
      "name": "Gà Tươi Phạm Xá - Tạ Quang Bửu",
      "latitude": 21.002274,
      "longitude": 105.849265,
      "description": "Apto avaritia trado canto vivo. Ascisco vero cursim coma angulus alius amoveo tempus amet pauci. Illum tabgo victoria color thymum aiunt summa."
    },
    {
      "address": "107 E7 Tạ Quang Bửu, P. Bách Khoa, Hai Bà Trưng, Hà Nội",
      "name": "Nhà Hàng Phong Béo",
      "latitude": 21.002141,
      "longitude": 105.849194,
      "description": "Curto quas aliqua. Vulpes ab abstergo. Cibus crepusculum conitor illum verus cubicularis solitudo artificiose."
    },
    {
      "address": "94 Thanh Nhàn, P. Thanh Nhàn, Hai Bà Trưng, Hà Nội",
      "name": "Tuấn Lẩu - Thanh Nhàn",
      "latitude": 21.003179,
      "longitude": 105.852237,
      "description": "Corrupti adulatio nobis alioqui attollo aro. Porro tametsi debeo vetus neque cavus ancilla perferendis. Coniuratio enim acidus."
    },
    {
      "address": "3 Ngõ 121 Lê Thanh Nghị, P. Đồng Tâm, Hai Bà Trưng, Hà Nội",
      "name": "Long Quân - Lẩu & Cơm Văn Phòng",
      "latitude": 21.001817,
      "longitude": 105.843458,
      "description": "Voluntarius copia stipes velociter uxor arcus ago benevolentia. Vulnero ciminatio tremo carus accusator. Terreo tenetur caterva."
    },
    {
      "address": "65 Ngõ Huế, P. Ngô Thì Nhậm, Hai Bà Trưng, Hà Nội",
      "name": "Nhà Hàng Chim Sáo - 65 Ngõ Huế",
      "latitude": 21.0147789,
      "longitude": 105.852965,
      "description": "Quae contra defleo vos. Vespillo spero ducimus surgo vorax. Venia tredecim cursim sustineo."
    },
    {
      "address": "52 Võ Thị Sáu, P. Thanh Nhàn, Hai Bà Trưng, Hà Nội",
      "name": "Deli 4B - BBQ & Hotpot - Võ Thị Sáu",
      "latitude": 21.006381,
      "longitude": 105.85475,
      "description": "Censura delego derelinquo odit magnam delectus officiis. Ambitus deleniti tam. Admiratio tactus thymbra constans blanditiis."
    },
    {
      "address": "1A Thanh Nhàn, P. Thanh Nhàn, Hai Bà Trưng, Hà Nội",
      "name": "KIKI - Lẩu Nướng & Cơm Văn Phòng",
      "latitude": 21.002957,
      "longitude": 105.861205,
      "description": "Pecto volaticus maxime volaticus solus. Tam decerno utrum sequi blanditiis. Sunt patior totam comprehendo turbo ducimus audentia."
    },
    {
      "address": "157 Đại La, P. Đồng Tâm, Hai Bà Trưng, Hà Nội",
      "name": "Gia Phát - Vịt Quay Quảng Đông",
      "latitude": 20.99649322,
      "longitude": 105.8455075,
      "description": "Verbum aduro delinquo strenuus. Deleniti abduco adduco. Veniam timidus depono decimus suscipio admitto."
    },
    {
      "address": "31 Lê Đại Hành, P. Lê Đại Hành, Hai Bà Trưng, Hà Nội",
      "name": "Cơm Văn Phòng - Lẩu Thái & Sườn Nướng - Lê Đại Hành",
      "latitude": 21.0107580718864,
      "longitude": 105.8487571949914,
      "description": "Demum aestus calcar utor celo aestus aufero cubo. Depraedor apostolus tot sumptus. Ulciscor iusto vigor molestias doloremque."
    },
    {
      "address": "67 Bùi Thị Xuân, P. Nguyễn Du, Hai Bà Trưng, Hà Nội",
      "name": "Quán Ăn Nhật Bản Nagomi",
      "latitude": 21.0182096321491,
      "longitude": 105.849942173467,
      "description": "Cruciamentum canis adeptio umquam solum spes sperno delectatio et. Vociferor clementia eaque tantillus valde supplanto casus. Patruus dapifer sum tergiversatio cupiditas."
    },
    {
      "address": "19 Lê Đại Hành, P. Lê Đại Hành, Hai Bà Trưng, Hà Nội",
      "name": "Ngọc Huyền - Chân Gà Nướng",
      "latitude": 21.012245,
      "longitude": 105.847517,
      "description": "Correptius blandior delego corpus tyrannus subito cedo. Utroque auditor tantillus ante caute rem stipes vulnero. Sufficio tumultus hic cedo."
    },
    {
      "address": "228B Ngõ 34 Vinh Tuy, Hai Bà Trưng, Hà Nội",
      "name": "Quán XO - Gà Ta Nướng Lu",
      "latitude": 20.996033,
      "longitude": 105.874047,
      "description": "Cohibeo adamo defleo venustas. Ut calcar subvenio exercitationem. Apto cultellus tum clam caries subito atqui crinis sulum adimpleo."
    },
    {
      "address": "Bia Đồng Đội 55 Võ Thị Sáu,  P. Thanh Nhàn, Hai Bà Trưng, Hà Nội",
      "name": "Vitamin Sea - Bún Hải Sản & Lẩu Hải Sản",
      "latitude": 21.00657715,
      "longitude": 105.85593838,
      "description": "Aspicio undique stultus laudantium cunctatio possimus thalassinus sono blanditiis. Cura quidem pel adsuesco sapiente. Calculus theca comparo."
    },
    {
      "address": "33 Lê Ngọc Hân, P. Ngô Thì Nhậm, Hai Bà Trưng, Hà Nội",
      "name": "Bánh Đa & Lẩu Cua Đồng Hải Phòng - Lê Ngọc Hân",
      "latitude": 21.016342,
      "longitude": 105.855336,
      "description": "Nam aggredior degero via cattus. Territo audax viduo cibo comis coruscus adamo argentum. Stillicidium tabula deficio appono."
    },
    {
      "address": "11N1 Ngách 15 Ngõ 230 Lạc Trung, P. Thanh Lương, Hai Bà Trưng, Hà Nội",
      "name": "Lẩu Thái Hải Sản Nhà Nhím - Shop Online",
      "latitude": 21.003814,
      "longitude": 105.865927,
      "description": "Basium tempora delibero basium ipsam tantum. Illo annus defetiscor caelestis vigor altus vinculum adulatio. Nobis eos officia ventito supra angulus anser alveus demitto contigo."
    },
    {
      "address": "168 Hồng Mai, P. Quỳnh Lôi, Hai Bà Trưng, Hà Nội",
      "name": "Bún Ốc Tú Béo",
      "latitude": 20.99872,
      "longitude": 105.85441,
      "description": "Cibo confero solus uxor sto adhaero nulla avarus tamen. Laudantium alveus consectetur tergum abscido adimpleo curtus caveo. Abduco vulnero causa claustrum statim aranea trepide."
    },
    {
      "address": "11 Ngách 91/85 Ngõ Trại Cá, P. Trương Định, Hai Bà Trưng, Hà Nội",
      "name": "Lẩu & Nướng Online 24/7",
      "latitude": 20.9932246543183,
      "longitude": 105.846710473133,
      "description": "Conscendo anser cultellus tempus arbitro totam. Undique curriculum voluptatibus blanditiis amplitudo. Atrox certe cometes nesciunt defero reiciendis thorax usque."
    },
    {
      "address": "170 Triệu Việt Vương, P.Bùi Thị Xuân, Hai Bà Trưng, Hà Nội",
      "name": "Chân & Cánh Gà Rang Muối - Triệu Việt Vương",
      "latitude": 21.0126573652601,
      "longitude": 105.8501987954781,
      "description": "Aranea textus cura repellendus tener. Cilicium earum volaticus cedo absconditus. Conspergo cohaero eaque deleniti."
    },
    {
      "address": "Số 59 Đại Cồ Việt, P. Bách Khoa, Hai Bà Trưng, Hà Nội",
      "name": "Lẩu Nướng Tú Béo Thìn Béo - Lẩu & Nướng - Đại Cồ Việt",
      "latitude": 21.00785156,
      "longitude": 105.84635591,
      "description": "Cimentarius magni neque nostrum concido decumbo theologus. Altus ea asperiores chirographum super possimus terror reiciendis. Adicio acer canonicus statua patria curtus aranea corrupti universe infit."
    },
    {
      "address": "56 Phố Huế, P. Phố Huế, Hai Bà Trưng, Hà Nội",
      "name": "Khúc Khích Gastrobar - Lòng Bò Nướng & Tokboki Rose - 56 Phố Huế",
      "latitude": 21.0181186,
      "longitude": 105.8514549,
      "description": "Viduo quasi adiuvo vobis termes porro tredecim nam volutabrum vitiosus. Barba altus clamo conventus conduco. Eligendi terror tenax."
    },
    {
      "address": "124 Hồng Mai, P. Bạch Mai, Hai Bà Trưng, Hà Nội",
      "name": "Nướng 124 Hồng Mai - Bò Nướng - Hồng Mai",
      "latitude": 21.0000814,
      "longitude": 105.8522287,
      "description": "Tolero conservo perspiciatis qui capitulus corporis. Antepono aurum thorax advoco. Conor contigo audentia suus totus aperte laborum volo tamquam."
    },
    {
      "address": "72 Trần Đại Nghĩa, P. Đồng Tâm, Hai Bà Trưng, Hà Nội",
      "name": "Lẩu Bò Khô - 72 Trần Đại Nghĩa",
      "latitude": 21.000723,
      "longitude": 105.8448777,
      "description": "Bellicus arbustum victoria accendo. Corporis atavus coaegresco. Cernuus tamisium demens cui cuppedia totam surgo."
    },
    {
      "address": "103K6B Ngõ 48 Tạ Quang Bửu, P. Bách Khoa, Hai Bà Trưng, Hà Nội",
      "name": "Ba Bún - Ngan Ngon Các Loại - Tạ Quang Bửu",
      "latitude": 21.000567,
      "longitude": 105.848532,
      "description": "Ipsam curiositas pauper tametsi hic ustilo stips. Perspiciatis tertius subseco vehemens. Debilito apparatus centum tumultus."
    },
    {
      "address": "1033 Bạch Đằng, P. Bạch Đằng, Hai Bà Trưng, Hà Nội",
      "name": "Bò Tơ Tây Ninh Tài Sanh - Bạch Đằng",
      "latitude": 21.01036883,
      "longitude": 105.86791534,
      "description": "Tamisium alias blandior acerbitas pauci volaticus spiritus commemoro. Eaque abscido articulus cibus arcus victus tempus tunc ex magnam. Totus antea contra."
    },
    {
      "address": "317 Trần Đại Nghĩa, P. Đồng Tâm, Hai Bà Trưng, Hà Nội",
      "name": "Zô Zô Quán - Lẩu & Nướng",
      "latitude": 20.995988,
      "longitude": 105.845553,
      "description": "Condico adiuvo facilis earum quidem stipes advoco vociferor. Caelum ultra adeo. Curis cornu terreo vacuus."
    },
    {
      "address": "Kí Ốt 4 D Ngõ 124 Vĩnh Tuy, Hai Bà Trưng, Hà Nội",
      "name": "Tiệm Mì Trộn Màu Hồng - Vĩnh Tuy",
      "latitude": 21.000732,
      "longitude": 105.876873,
      "description": "Calco commodo adhaero architecto. Admiratio depraedor accusator. Aspernatur abstergo abscido maiores blanditiis audentia vesco."
    },
    {
      "address": "52 Ngõ 204 Lê Thanh Nghị, Hai Bà Trưng, Hà Nội",
      "name": "Bếp 4 Mùa",
      "latitude": 21.002726,
      "longitude": 105.844296,
      "description": "Sui victoria carbo nobis censura cum eaque alii maiores. Amita trans auxilium error quo capillus. Capitulus aperte xiphias cunae victoria."
    },
    {
      "address": "116 Trương Định, Hai Bà Trưng, Hà Nội",
      "name": "Tiệm Mì Trộn Màu Hồng",
      "latitude": 20.993087,
      "longitude": 105.8495219,
      "description": "Ascisco capitulus explicabo. Creta cur sordeo turba summopere vaco cura collum. Amaritudo quos utrimque ultra."
    },
    {
      "address": "103 Dương Văn Bé, P. Vĩnh Tuy, Hai Bà Trưng, Hà Nội",
      "name": "Henry Food - Cơm Gạo Lứt",
      "latitude": 20.9986752286002,
      "longitude": 105.873428923213,
      "description": "Tabella conatus accedo corrumpo totus. Consuasor amplus verbum ademptio tenus argumentum. Solus sulum decor minima colligo aegrotatio attero."
    },
    {
      "address": "104K3 Ngõ 48 Tạ Quang Bửu, P. Bách Khoa, Hai Bà Trưng, Hà Nội",
      "name": "ZooZoo - Cơm Văn Phòng, Ăn Vặt & Lẩu",
      "latitude": 21.00086779,
      "longitude": 105.84814489,
      "description": "Tot culpo vigilo tonsor aufero. Acceptus vallum agnitio valetudo deleniti ea cohors suppellex aegrus. Adulatio quos dolor suffoco suscipio cras vere."
    },
    {
      "address": "21/10/433 Bạch Mai, P. Bạch Mai, Hai Bà Trưng, Hà Nội",
      "name": "Nem Nướng Nha Trang Trường An - Bạch Mai",
      "latitude": 20.998395705555,
      "longitude": 105.850667676385,
      "description": "Custodia soluta accusator caute statim sustineo versus culpo clamo. Molestias abundans vestrum denego catena bestia atque cenaculum timidus. Perferendis molestias caelum tabesco sufficio carus corroboro demo amissio cornu."
    },
    {
      "address": "505 Minh Khai, P. Vĩnh Tuy, Hai Bà Trưng, Hà Nội",
      "name": "Lẩu Hầm Hải Sản HOYO - Shop Online",
      "latitude": 20.999759,
      "longitude": 105.870391,
      "description": "Provident tantillus villa acies vix crustulum explicabo studio. Delinquo tyrannus deorsum calco currus voluptates pectus. Nostrum balbus conturbo ducimus angelus aurum adulescens."
    },
    {
      "address": "18 Ngách 67 Ngõ 295 Bạch Mai, P. Bạch Mai, Hai Bà Trưng, Hà Nội",
      "name": "Trang Vũ - Cơm, Bún, Mì & Lẩu Nướng",
      "latitude": 21.002037,
      "longitude": 105.852767,
      "description": "Cupressus aeternus corpus iste ad stips provident vilicus. Agnitio celer demens defluo. Thorax velut adficio alienus tamisium ademptio uter ascisco."
    },
    {
      "address": "10 Ngõ 64 Thọ Lão, P. Đồng Nhân, Hai Bà Trưng, Hà Nội",
      "name": "Quán Ăn Đêm Anh Béo - Shop Online - Thọ Lão",
      "latitude": 21.011242,
      "longitude": 105.856569,
      "description": "Strenuus corpus vilitas utpote angulus pecco amissio ambitus maiores. Solutio conservo atqui subvenio laboriosam ante conduco trado suadeo deporto. Crustulum beneficium sordeo tantum."
    },
    {
      "address": "Ngõ 17 Mạc Thị Bưởi, P. Vĩnh Tuy, Hai Bà Trưng, Hà Nội",
      "name": "Viên Thả Lẩu 27 - Ăn Vặt - MTB",
      "latitude": 20.999967,
      "longitude": 105.8693004,
      "description": "Sum apto aut. Desipio ab coadunatio asperiores decens quidem denego verumtamen vespillo. Tamen asperiores comis coepi capillus aliqua adflicto antiquus conitor."
    },
    {
      "address": "15 Ngõ 164 Hồng Mai, P. Quỳnh Lôi, Hai Bà Trưng, Hà Nội",
      "name": "Lẩu Trang Ly - Lẩu Thái Hải Sản - Hồng Mai",
      "latitude": 20.9981141,
      "longitude": 105.8538494,
      "description": "Substantia auctor tenus talus tondeo curvo adnuo comptus surgo tergiversatio. Trucido angustus statua approbo solvo venustas. Coniuratio vilis carpo territo administratio vado collum arbitro trepide dicta."
    },
    {
      "address": "80 Ngõ 296 Minh Khai, P. Vĩnh Tuy, Hai Bà Trưng, Hà Nội",
      "name": "Cháo Sườn Sụn Phương Anh",
      "latitude": 20.9937417,
      "longitude": 105.860844,
      "description": "Crudelis tracto decens tergiversatio dolor adicio cruentus. Tracto decipio vilis torqueo conturbo communis. Aureus deputo statua viduo artificiose tenetur molestias stultus peior."
    },
    {
      "address": "Số 206 Bà Triệu, P. Nguyễn Du, Hai Bà Trưng, Hà Nội",
      "name": "Bếp Phượng - Cơm Tấm Sài Gòn, Bún Riêu & Lẩu Riêu Cua Đồng - 206 Bà Triệu",
      "latitude": 21.01564032,
      "longitude": 105.84904885,
      "description": "Antea distinctio viduo venustas undique comedo capitulus undique apto pecto. Audeo utique vito cornu corrigo cur adaugeo tergiversatio expedita nam. Uter totidem ambulo decipio uberrime tonsor comitatus vinum contra."
    },
    {
      "address": "27 Đại La, P. Trương Định, Hai Bà Trưng, Hà Nội",
      "name": "Chuối Nướng Buffet 139k - Đại La",
      "latitude": 20.99738477,
      "longitude": 105.846351,
      "description": "Calamitas delectatio caelum capillus tandem copia vesco supplanto. Avaritia utrum aequus tenus voluptate conduco caelum velit velum calamitas. Saepe supra super adulatio demergo adimpleo arguo degero."
    },
    {
      "address": "20 Đại Cồ Việt, P. Lê Đại Hành, Hai Bà Trưng, Hà Nội",
      "name": "Minh Thủy - Riêu Cua Ốc & Lẩu Thập Cẩm - Đại Cồ Việt",
      "latitude": 21.00868745,
      "longitude": 105.85001403,
      "description": "Crustulum veritas uberrime alter adinventitias possimus cumque bos. Cernuus causa est caveo. Currus cubitum alienus quam vindico adulatio antea facilis cura ante."
    },
    {
      "address": "62 Trương Định, P. Trương Định, Hai Bà Trưng, Hà Nội",
      "name": "Viên Thả Lẩu & Xúc Xích Phomai - Trương Định",
      "latitude": 20.9943147,
      "longitude": 105.8474519,
      "description": "Absorbeo tredecim tametsi causa crur bellum varius. Ager cerno succedo vir debeo. Doloremque tabesco theologus ulterius clementia reprehenderit vesica cohibeo."
    },
    {
      "address": "109B2 Ngõ Trại Găng (237 Phố Bạch Mai), Hai Bà Trưng, Hà Nội",
      "name": "Quán Ốc Bà Chu",
      "latitude": 21.003254,
      "longitude": 105.852784,
      "description": "Thorax audio damno vehemens porro capillus circumvenio. Adinventitias creator officia speciosus officia. Vinitor suppono certe argentum viriliter conservo."
    },
    {
      "address": "15 Trần Khát Chân, P. Thanh Lương, Hai Bà Trưng, Hà Nội",
      "name": "83 BBQ - Lẩu Nướng - 15 Trần Khát Chân",
      "latitude": 21.0082982,
      "longitude": 105.865556,
      "description": "Adfectus absque tremo. Textor utique corpus cribro. Vaco cibus dedico thesis accusator."
    },
    {
      "address": "107 Ngõ 6 Quỳnh Lôi, P. Quỳnh Mai, Hai Bà Trưng, Hà Nội",
      "name": "Linh\'s Tea - Milo Dầm & Pudding Trà Sữa - Quỳnh Lôi",
      "latitude": 21.00233964,
      "longitude": 105.8589715,
      "description": "Via vespillo venia denuncio corrupti avarus. Assentator admiratio esse aegre tenetur adicio curto tener. Curo placeat depopulo contigo adhaero tepesco."
    },
    {
      "address": "49 Triệu Việt Vương, P. Bùi Thị Xuân, Hai Bà Trưng, Hà Nội",
      "name": "Konne - Japanese Hakata Restaurant & Café",
      "latitude": 21.0161724,
      "longitude": 105.8506,
      "description": "Illum adipiscor creator avarus thymbra apparatus ullus cenaculum tabernus. Vae assumenda uterque. Dolore autem condico sto bonus cognomen omnis ambitus carcer."
    },
    {
      "address": "B8 - B9 Shophouse Imperia Sky Garden, 423 Minh Khai, P. Vĩnh Tuy, Hai Bà Trưng, Hà Nội",
      "name": "Layla House - Lẩu HongKong & Đồ Ăn Eat Clean",
      "latitude": 20.998125,
      "longitude": 105.86694,
      "description": "Degusto corona degenero barba creo accusamus defessus anser color. Dedecor ventito ascit quaerat. Ab tepesco territo admoneo cito ars calculus tardus strues statua."
    },
    {
      "address": "543 Giải Phóng, P. Đồng Tâm, Hai Bà Trưng, Hà Nội",
      "name": "Ngân Lộc - Vịt Quay Lạng Sơn - Giải Phóng",
      "latitude": 20.991718,
      "longitude": 105.84133,
      "description": "Inventore repellat adficio ver curtus adfectus. Sperno qui suscipio absconditus coaegresco audax utroque. Tantillus conventus carcer peior sumo capto totus victoria benevolentia."
    },
    {
      "address": "4 Ngách 34/55 Dương Văn Bé, P. Vĩnh Tuy, Hai Bà Trưng, Hà Nội",
      "name": "Bánh Tráng Trộn & Nem Lụi Nướng - Bếp Nhà Thỏ",
      "latitude": 21.0001871,
      "longitude": 105.87280663,
      "description": "Adimpleo uterque depereo defleo aestas capio. Ver magni aqua utor anser deprecator astrum. Sub aiunt aeger bellicus depulso temporibus adduco."
    },
    {
      "address": "22 Ngõ 41 Bùi Ngọc Dương, P. Quỳnh Lôi, Hai Bà Trưng, Hà Nội",
      "name": "Thái Madee - Lẩu Thái & Xôi Xoài",
      "latitude": 21.00073477,
      "longitude": 105.8542527,
      "description": "Doloribus ustilo delego uxor creator addo arguo. Condico vesper auctus sono. Soluta aedificium sopor deorsum umquam eaque."
    },
    {
      "address": "51A Đại Cồ Việt, P. Bách Khoa, Hai Bà Trưng, Hà Nội",
      "name": "Dũng Cồ - Cơm Văn Phòng & Lẩu",
      "latitude": 21.007879,
      "longitude": 105.846836,
      "description": "Avaritia blandior succedo. Triduana theatrum auctor excepturi thalassinus placeat. Ars ver sopor quibusdam ceno comitatus autem suffragium adipiscor."
    },
    {
      "address": "107 Y9 Ngõ Tự Do, P. Đồng Tâm, Hai Bà Trưng, Hà Nội",
      "name": "Guu Chicken Plus - Ngõ Tự Do",
      "latitude": 20.998282,
      "longitude": 105.847027,
      "description": "Deleo aequitas abduco patria cohors annus. Aestivus arcus deleo ademptio cicuta. Minus cupio sollicito sortitus arcus unde crepusculum claro."
    },
    {
      "address": "1E6 Quỳnh Mai, P. Quỳnh Mai, Hai Bà Trưng, Hà Nội",
      "name": "Guu Chicken Plus - Quỳnh Mai",
      "latitude": 21.001619,
      "longitude": 105.861009,
      "description": "Uberrime calculus cotidie succedo. Adstringo suus toties corporis illo. Quibusdam agnitio harum deleniti cogo."
    },
    {
      "address": "28 Ngõ 156 Hồng Mai, P. Bạch Mai, Hai Bà Trưng, Hà Nội",
      "name": "Bùm Quán - Chân Gà, Cánh Gà & Đồ Ăn Vặt",
      "latitude": 20.997894,
      "longitude": 105.852766,
      "description": "Conforto bellicus certe synagoga officiis. Quam spargo amicitia aqua viscus stips succedo teneo. Vetus autem tredecim amicitia."
    },
    {
      "address": "31 Tuệ Tĩnh, P. Bùi Thị Xuân, Hai Bà Trưng, Hà Nội",
      "name": "Hà Phương - Lẩu & Đồ Ăn Vặt",
      "latitude": 21.015137,
      "longitude": 105.850301,
      "description": "Absum atrocitas acervus vitae contigo. Cogito arma centum aqua adaugeo civis somnus cubitum. Consectetur templum veritatis accusamus alveus socius caute corpus demergo absorbeo."
    },
    {
      "address": "91 Trần Khát Chân, P. Thanh Lương, Hai Bà Trưng, Hà Nội",
      "name": "Nướng Dân Dã",
      "latitude": 21.00878152,
      "longitude": 105.86247256,
      "description": "Quaerat velum blanditiis sui stabilis solus dolorem dolor. Nihil tutis stillicidium curso curtus voluptas corona. Avaritia capitulus cultura atqui caritas corrumpo nobis defungo timor somniculosus."
    },
    {
      "address": "11 Ngách 1 Ngõ 880 Bạch Đằng, P. Thanh Lương, Hai Bà Trưng, Hà Nội",
      "name": "Bếp Family - Lẩu & Đồ Nhậu Online",
      "latitude": 21.008601,
      "longitude": 105.868763,
      "description": "Solium ascisco nostrum animadverto via aeneus. Caveo doloremque quo amicitia mollitia vorago ademptio balbus denego. Ciminatio aestivus nisi."
    },
    {
      "address": "Số 9 Tuệ Tĩnh, P. Bùi Thị Xuân, Hai Bà Trưng, Hà Nội",
      "name": "Bún Riêu Cô Hoàn - Tuệ Tĩnh",
      "latitude": 21.01527981,
      "longitude": 105.85114865,
      "description": "Vomito decumbo combibo creber cribro somnus arca eveniet. Cogo error talus doloribus volo voluptatum vociferor. Tergeo eveniet admiratio cilicium venustas antiquus."
    },
    {
      "address": "378 Minh Khai, P. Vĩnh Tuy, Hai Bà Trưng, Hà Nội",
      "name": "Min Food Ship24h - Lẩu & Nướng - 378 Minh Khai",
      "latitude": 20.9960591,
      "longitude": 105.8644012,
      "description": "Depraedor sol vapulus nihil arx stipes tunc eum ulterius adulescens. Tutis viscus amoveo subiungo teres attonbitus. Aspernatur congregatio carbo abbas cena agnitio defleo."
    },
    {
      "address": "52/27 Chùa Liên Phái Bạch Mai, P. Cầu Dền, Hai Bà Trưng, Hà Nội",
      "name": "BẾP MẸ THỎ - Lẩu - Bạch Mai",
      "latitude": 21.005037,
      "longitude": 105.850423,
      "description": "Varietas amplus adficio velum solitudo abduco cognomen blandior cometes acsi. Vito templum tamen debeo careo. Conatus conservo facere tui adsuesco impedit celer."
    },
    {
      "address": "18 Ngách 67 Ngõ 295 Bạch Mai, P. Bạch Mai, Hai Bà Trưng, Hà Nội",
      "name": "Bếp Trang Vũ - Cơm Văn Phòng, Lẩu Thái & Lẩu Ếch Online",
      "latitude": 21.001969,
      "longitude": 105.852739,
      "description": "Cruciamentum deporto atavus atrox arx ciminatio despecto. Supra texo delectatio appositus caritas tersus cui copia. Arbitro delicate ubi aeger tondeo turpis comptus."
    },
    {
      "address": "111Y9 Tập Thể Kinh Tế Quốc Dân - Ngõ Tự Do, Hai Bà Trưng, Hà Nội",
      "name": "Lẩu Thái Hải Sản Hoa Quả - Shop Online",
      "latitude": 20.998111,
      "longitude": 105.846833,
      "description": "Reiciendis demonstro amicitia. Assentator thymbra deduco tumultus cohors sortitus unus adeptio delinquo atque. Tunc uberrime ambitus somniculosus adfero sed."
    },
    {
      "address": "56 Kim Ngưu, P. Thanh Nhàn, Hai Bà Trưng, Hà Nội",
      "name": "Cường Trà - Thịt Xiên Nướng - Kim Ngưu",
      "latitude": 21.007869,
      "longitude": 105.860691,
      "description": "Creo alias capio decumbo truculenter. Adficio paulatim abutor suppellex excepturi cavus adsuesco ipsam dapifer. Cupiditas tergum utilis tergeo amaritudo ulterius adhaero sortitus."
    },
    {
      "address": "Ngõ 64 Tô Hiến Thành, P. Bùi Thị Xuân, Hai Bà Trưng, Hà Nội",
      "name": "Nhà Hàng Bể Cá - Thực Phẩm Homemade",
      "latitude": 21.013388,
      "longitude": 105.849817,
      "description": "Acies capillus vociferor arceo caelestis viridis spiritus. Assentator clementia uterque conforto solitudo averto arx. Totus titulus viriliter."
    },
    {
      "address": "3B Tô Hiến Thành, P. Phố Huế, Hai Bà Trưng, Hà Nội",
      "name": "Hai Con Gà Trang 81 - Lẩu Ngon",
      "latitude": 21.0115168,
      "longitude": 105.8533481,
      "description": "Vallum aufero socius dolor coniuratio. Unus valde vulticulus. Curia claustrum temeritas depono territo derelinquo volutabrum aer aro cornu."
    },
    {
      "address": "43 Tạ Quang Bửu, P. Bạch Mai, Hai Bà Trưng, Hà Nội",
      "name": "Bánh Mì, Xôi & Mì Trộn Indomie - Tạ Quang Bửu",
      "latitude": 21.0008430440227,
      "longitude": 105.850115232749,
      "description": "Tantum supplanto spargo basium supellex utique tubineus substantia sono. Caute statua speculum appono. A aspernatur adsum pariatur suffragium acidus expedita."
    },
    {
      "address": "3 Ngõ 256 Phố Lê Thanh Nghị, P. Đồng Tâm, Hai Bà Trưng, Hà Nội",
      "name": "Ngan Vịt Phố Cổ - Lê Thanh Nghị",
      "latitude": 20.996799,
      "longitude": 105.8459277,
      "description": "Speciosus pel uredo adipisci cattus. Pel artificiose vir ambulo. Adopto contra consuasor baiulus."
    },
    {
      "address": "Ngõ 67 Nhà 3 Lê Thanh Nghị, P. Đồng Tâm, Hai Bà Trưng, Hà Nội",
      "name": "Cơm, Phở & Lẩu - Lê Thanh Nghị",
      "latitude": 21.00155486,
      "longitude": 105.84472176,
      "description": "Ab adfero id vita aegrotatio curtus carcer. Aperte tyrannus amiculum aveho clementia thymbra. Una infit adeptio aperte solutio."
    },
    {
      "address": "132 Ngõ 559 Kim Ngưu, P. Vĩnh Tuy, Hai Bà Trưng, Hà Nội",
      "name": "Khang Ký - Bếp Gia Đình Online",
      "latitude": 20.998152,
      "longitude": 105.86227,
      "description": "Quisquam quo cervus. Comes tertius labore sol solvo communis sum benigne clementia. Acsi comedo conitor ceno atavus commodi amita amissio ambitus."
    },
    {
      "address": " 4 Nguyễn Thượng Hiền, P.  Nguyễn Du, Hai Bà Trưng, Hà Nội",
      "name": "Cân - Taiwanese Street Hotpot",
      "latitude": 21.0189351,
      "longitude": 105.8438019,
      "description": "Dolorem sapiente tricesimus sequi patria. Adfero videlicet aliquam reprehenderit uterque curia. Collum curso tardus sophismata sui correptius caput inventore."
    },
    {
      "address": "101 Đại Cổ Việt, P. Lê Đại hành, Hai Bà Trưng, Hà Nội",
      "name": "101 Quán - Bún Dọc Mùng & Bún Giả Cầy - Đại Cồ Việt",
      "latitude": 21.0077199715075,
      "longitude": 105.845062257183,
      "description": "Defendo autem thesaurus caelestis depromo. Contigo blanditiis tamquam fuga tabula. Quasi sperno desolo thalassinus."
    },
    {
      "address": "30 Trần Khát Chân Kéo Dài, P. Bạch Đằng, Hai Bà Trưng, Hà Nội",
      "name": "Nem Nướng Nha Trang Nông Nghiệp - Nem Nướng - 30 Trần Khát Chân Kéo Dài",
      "latitude": 21.0088894,
      "longitude": 105.86442,
      "description": "Agnitio textus sumo barba. Suffoco vinco voco supra adsidue victoria sponte deorsum caecus vinitor. Cunctatio voro animadverto amplitudo curiositas termes."
    },
    {
      "address": "553 Giải Phóng, P. Đồng Tâm, Hai Bà Trưng, Hà Nội",
      "name": "Hải Tặc Quán",
      "latitude": 20.99140979,
      "longitude": 105.84124293,
      "description": "Strenuus somniculosus deorsum custodia. Atrocitas volutabrum suasoria charisma tergeo. Voluptas utrimque assentator thymbra."
    }
  ]
}