{
  "count": 199,
  "data": [
    {
      "address": "91 Trần Đại Nghĩa, Hai Bà Trưng, Hà Nội",
      "name": "Mì Cay Seoul - Trần Đại Nghĩa",
      "latitude": 21.00482087,
      "longitude": 105.84564114,
      "description": "Cattus decipio cimentarius desino vaco nemo terror. Usque ciminatio cometes corrupti. Arbor careo aptus."
    },
    {
      "address": "255 Phố Huế (Ngã Ba Phố Huế - Đoàn Trần Nghiệp), P. Phố Huế, Hai Bà Trưng, Hà Nội",
      "name": "SingResto - Cháo Ếch Singapore - Phố Huế",
      "latitude": 21.01185596,
      "longitude": 105.85175578,
      "description": "Civis coerceo cruentus concedo acquiro crapula vomito turpis. Confido veritatis vociferor cursus soleo conscendo ascit carcer labore cotidie. Cado praesentium titulus neque."
    },
    {
      "address": "30 Thi Sách, P. Ngô Thì Nhậm, Hai Bà Trưng, Hà Nội",
      "name": "Mắm Quán - Chân Gà Chiên Mắm & Lẩu Sạch",
      "latitude": 21.016212,
      "longitude": 105.854138,
      "description": "Terreo reiciendis certe deleniti ager. Vita arma patrocinor cibo debitis velut theca assentator apud. Blandior amita fuga vapulus commodi victus decet."
    },
    {
      "address": "2 Ngõ 100 Trần Đại Nghĩa, P. Đồng Tâm, Hai Bà Trưng, Hà Nội",
      "name": "Chén Cả Thế Giới - Phố Bánh Gà & Chè - Trần Đại Nghĩa",
      "latitude": 20.997647,
      "longitude": 105.84564,
      "description": "Iusto vilicus artificiose conqueror. Arceo culpo arcesso tamdiu animi suadeo tonsor iste placeat. Sumo deprecator nesciunt vomer."
    },
    {
      "address": "167 Lãng Yên, P. Thanh Lương, Hai Bà Trưng, Hà Nội",
      "name": "Dồi Nướng Đê Trần Khát Chân - Lãng Yên",
      "latitude": 21.008296,
      "longitude": 105.863605,
      "description": "Causa astrum synagoga coerceo vereor tertius deficio terra benigne. Adulatio deripio sed tam corrigo deleo. Ab dedico utroque esse natus suspendo celo."
    },
    {
      "address": "474 Trần Khát Chân, P. Thanh Nhàn, Hai Bà Trưng, Hà Nội",
      "name": "Tú Gà - Chân Gà Rang Muối - Trần Khát Chân",
      "latitude": 21.008951,
      "longitude": 105.853793,
      "description": "Complectus thymbra acer perspiciatis succedo. Decimus abundans vesco acies cado saepe talus cultura. Solium testimonium nam cunae arto depromo vetus suffoco thymbra."
    },
    {
      "address": "1 Ngõ Tô Hoàng, P. Cầu Dền, Hai Bà Trưng, Hà Nội",
      "name": "Thúy Vịt - Ngan & Vịt Các Món",
      "latitude": 21.006447,
      "longitude": 105.850736,
      "description": "Tonsor confido angulus deprimo clementia adulescens. Necessitatibus tego tantillus allatus crebro terra optio amita. Concido callide earum clementia altus adiuvo conturbo eius terra."
    },
    {
      "address": "464 Bạch Mai, P. Trương Định, Hai Bà Trưng, Hà Nội",
      "name": "Hansarang - Ẩm Thực Hàn Quốc",
      "latitude": 20.997986,
      "longitude": 105.850059,
      "description": "Pauper delinquo tardus alienus uxor catena triduana confido speculum. Ait torqueo ullus iste adeo tamdiu amiculum utilis vito. Depono defluo defleo demitto."
    },
    {
      "address": "57 Lạc Trung, P. Thanh Lương, Hai Bà Trưng, Hà Nội",
      "name": "Nét Huế - Lạc Trung",
      "latitude": 21.003294,
      "longitude": 105.866689,
      "description": "Bos deludo arma addo. Agnitio adeo addo. Utor thymbra quaerat statim."
    },
    {
      "address": "562 Trần Khát Chân, P. Phố Huế, Hai Bà Trưng, Hà Nội",
      "name": "Sườn Mười - Sườn Nướng BBQ - Trần Khát Chân",
      "latitude": 21.00877,
      "longitude": 105.851548,
      "description": "Confugo corona ubi aegrotatio solium vestrum cavus vomica. Alienus fuga deprimo abutor id. Expedita utpote tergo rerum coniuratio."
    },
    {
      "address": "247 Trần Đại Nghĩa, P. Trương Định, Hai Bà Trưng, Hà Nội",
      "name": "Gimbab Hàn Quốc - Trần Đại Nghĩa",
      "latitude": 20.99726511,
      "longitude": 105.84598934,
      "description": "Appono cupiditas ceno calco aegrus. Ascisco cuppedia valens exercitationem arceo colligo colo temeritas una. Minima super facilis ulciscor cogito supplanto utpote urbanus."
    },
    {
      "address": "193 Dương Văn Bé, P. Vĩnh Phú, Hai Bà Trưng, Hà Nội",
      "name": "Gà Tươi Mạnh Nam - Dương Văn Bé",
      "latitude": 20.995279,
      "longitude": 105.874333,
      "description": "Aduro ventosus unus adulescens fuga considero necessitatibus callide. Iusto arguo vester delinquo tum spoliatio cum comburo. Demulceo verecundia ver arbustum desparatus accusantium catena."
    },
    {
      "address": "48 Vân Đồn, P.Bạch Đằng, Hai Bà Trưng, Hà Nội",
      "name": "Hoa Béo - Nem Nướng Ninh Hòa - Vân Đồn",
      "latitude": 21.01440823,
      "longitude": 105.86458381,
      "description": "Corroboro averto voluptate argentum quia volutabrum ustilo. Deleniti alter bibo thesis. Dolorem decretum capto accendo."
    },
    {
      "address": "109 Triệu Việt Vương, Hai Bà Trưng, Hà Nội",
      "name": "Tonchan Ramen - Mì Nhật",
      "latitude": 21.014122,
      "longitude": 105.850476,
      "description": "Aperiam adversus amissio cuius caelum sortitus delectus aveho conor. Congregatio stella paens ventito argumentum molestias. Sol animi conservo cariosus aegrus voluptatum solus."
    },
    {
      "address": "8E6 Kim Ngưu, P. Quỳnh Mai, Hai Bà Trưng, Hà Nội",
      "name": "Gà Tươi Mạnh Hoạch - Kim Ngưu",
      "latitude": 21.00154542,
      "longitude": 105.8612898,
      "description": "Adficio iusto comis avarus cetera clam terebro. Conventus ea cum acervus curso vorago averto tamisium porro. Artificiose uter saepe."
    },
    {
      "address": " Số 69 Ngõ Tự Do, P. Đồng Tâm, Hai Bà Trưng, Hà Nội",
      "name": "King Dakgalbi - Gà Xào Phô Mai - Ngõ Tự Do",
      "latitude": 20.9976162,
      "longitude": 105.84650202,
      "description": "Vox combibo depono tergo absque vester calculus tabula aptus aveho. Totidem speciosus sit vestrum. Sponte curriculum velum antepono suscipio defleo quis praesentium decretum."
    },
    {
      "address": "5 Phố Chùa Quỳnh, P. Quỳnh Mai, Hai Bà Trưng, Hà Nội",
      "name": "Hương Thảo - Lẩu Gà Lá É Đà Lạt",
      "latitude": 20.99963219,
      "longitude": 105.85745375,
      "description": "Contra spiritus apud cuius nostrum vulariter ademptio amissio apostolus abutor. Vilitas thymbra dicta curatio credo. Reiciendis decor quia catena amicitia audentia."
    },
    {
      "address": " 8E6 Kim Ngưu, P. Quỳnh Mai, Hai Bà Trưng, Hà Nội",
      "name": "Phong Gà Quán - Gà Nướng Lu Chính Hiệu - Kim Ngưu",
      "latitude": 21.0013745,
      "longitude": 105.8612055,
      "description": "Aro deduco subito vaco certus totam tabesco corrupti tenuis cogito. Dens vos amo creta. Cervus patria confugo aeger denuncio antea decor."
    },
    {
      "address": "Kiot 13  Quỳnh Mai, P.Quynh Mai, Hai Bà Trưng, Hà Nội",
      "name": "Bánh Cuốn Nóng Gà Tần Cháo Ngao - Bánh Cuốn, Gà, Cháo - Quỳnh Mai",
      "latitude": 21.0008348,
      "longitude": 105.8606695,
      "description": "Solutio attollo vinco thalassinus et asper texo autem paens magni. Comes denique soluta atrox. Labore torqueo decimus titulus."
    },
    {
      "address": "5C Trần Nhân Tông, P. Bùi Thị Xuân, Hai Bà Trưng, Hà Nội",
      "name": "Bánh Mì Thịt Xiên Nướng - Trần Nhân Tông",
      "latitude": 21.016811,
      "longitude": 105.850966,
      "description": "Spiritus uredo cado vigor cunabula cursim turpis arbustum. Cupio corpus sortitus censura deduco. Tredecim occaecati turpis super studio arcus."
    },
    {
      "address": "111 E7 TT. Bách Khoa, Tạ Quang Bửu, P. Bách Khoa, Hai Bà Trưng, Hà Nội",
      "name": "Lẩu Gà Lá É É É Thắng Béo",
      "latitude": 21.001625,
      "longitude": 105.849344,
      "description": "Natus peior quas combibo auditor deficio sollicito acies aperiam. Copiose defaeco careo ubi utilis confero ipsum. Campana balbus avarus iste aedificium depereo cedo."
    },
    {
      "address": "3 Ngõ Bà Triệu, P. Lê Đại Hành, Hai Bà Trưng, Hà Nội",
      "name": "Koh Yam - Thai Kitchen & Dessert - Bà Triệu",
      "latitude": 21.012578,
      "longitude": 105.848675,
      "description": "Somniculosus stultus textilis thermae confido tandem depulso. Corrupti depereo decet. Cicuta decretum vestigium acidus cena temporibus."
    },
    {
      "address": "236 - 238 Lạc Trung, Hai Bà Trưng, Hà Nội",
      "name": "Phở Thanh Hà - Lạc Trung",
      "latitude": 21.002989,
      "longitude": 105.86701,
      "description": "Confero tyrannus creator vindico suggero. Pariatur utpote curatio causa cultellus volva pax. Uredo pecco deprecator occaecati."
    },
    {
      "address": "2A Thái Phiên, Hai Bà Trưng, Hà Nội",
      "name": "Bò Nhúng Dấm - Thái Phiên",
      "latitude": 21.010604,
      "longitude": 105.84986,
      "description": "Audax demergo via anser. Omnis blandior usus. Aveho aspernatur tristis cimentarius vomica creptio aeternus sulum."
    },
    {
      "address": "113 Thanh Nhàn, P.Thanh Nhàn, Hai Bà Trưng, Hà Nội",
      "name": "Tiệm Nhà Táo - Gỏi Cuốn, Nem Nướng & Nước Ép - Thanh Nhàn",
      "latitude": 21.002716,
      "longitude": 105.8578078,
      "description": "Spiculum arceo tabgo coniecto. Tamen aeternus arma timidus temeritas adipiscor cerno demonstro depopulo. Cicuta tero conor depulso volubilis."
    },
    {
      "address": "15 Nguyễn Du, P. Bùi Thị Xuân, Hai Bà Trưng, Hà Nội",
      "name": "Kói - Bò Nhúng Dấm",
      "latitude": 21.01832947,
      "longitude": 105.8508315,
      "description": "Thema campana totus bibo comedo virga venustas cilicium supplanto voluntarius. Desipio nisi congregatio. Capillus comprehendo assentator arca magnam avaritia concido debilito aperio curatio."
    },
    {
      "address": "106E3 Lê Thanh Nghị, P. Bách Khoa, Hai Bà Trưng, Hà Nội",
      "name": "Lẩu Bee Phạm",
      "latitude": 21.001777,
      "longitude": 105.846224,
      "description": "Confugo temperantia accommodo angulus derelinquo. Cur ustulo sapiente comburo crepusculum beatae quis curiositas cras amplexus. Vinitor coepi statua atrox sit tamisium ad argentum ulciscor corporis."
    },
    {
      "address": "2C Thịnh Yên, P. Phố Huế, Hai Bà Trưng, Hà Nội",
      "name": "Ốc La Cà - Thịnh Yên",
      "latitude": 21.009752,
      "longitude": 105.851485,
      "description": "Vitium absum desipio caute officiis amplus voco tollo. Cunctatio adeptio ab audacia ustulo animadverto depono fugiat. Curto canto temporibus celer."
    },
    {
      "address": "235 Trần Đại Nghĩa, P. Đồng Tâm, Hai Bà Trưng, Hà Nội",
      "name": "Minh Phương - Nem Nướng Nha Trang - Trần Đại Nghĩa",
      "latitude": 20.9974911,
      "longitude": 105.84608407,
      "description": "Ustulo cattus spiculum vulgus verumtamen. Temporibus cognatus spectaculum. Acies vita stipes odio vetus turba aveho."
    },
    {
      "address": "Số 2 Hoa Lư, P. Lê Đại Hành, Hai Bà Trưng, Hà Nội",
      "name": "Bò Tơ Quán Mộc Cơ Sở 4 - 2 Hoa Lư",
      "latitude": 21.0102549,
      "longitude": 105.84772918,
      "description": "Copia blandior quam ter asper molestias celo altus laboriosam sed. Voveo autus paens stips iure demum cunctatio. Sui coerceo ullam tam ante agnosco tabula delicate."
    },
    {
      "address": "42 Lương Yên, P. Bạch Đằng, Hai Bà Trưng, Hà Nội",
      "name": "Cây Dâu - Thịt Xiên Nướng - 42 Lương Yên",
      "latitude": 21.011216,
      "longitude": 105.862705,
      "description": "Viduo cado tricesimus eum. Vestigium talus adflicto conscendo natus casso spoliatio calamitas. Truculenter adimpleo ago defendo."
    },
    {
      "address": "29 Nguyễn Đình Chiểu, P. Lê Đại Hành, Hai Bà Trưng, Hà Nội",
      "name": "PHỞ MUỐN - Phở Bò & Lẩu Bò - 29 Nguyễn Đình Chiểu",
      "latitude": 21.0146702,
      "longitude": 105.8472352,
      "description": "Tui solutio consectetur. Vinculum auditor iure audio succedo ullam creber ubi arto. Custodia arcus alveus deorsum."
    },
    {
      "address": "312 Phố Minh Khai, P. Mai Động  ( Gần Cầu Mai Động ), Hai Bà Trưng, Hà Nội",
      "name": "Umai Sushi Tiệm Ăn Nhật Bản - Thực Phẩm - Minh Khai",
      "latitude": 20.9957467,
      "longitude": 105.861357,
      "description": "Accommodo conor tactus vitium. Delego denique tibi. Nulla volutabrum vinco demens demulceo viridis terra."
    },
    {
      "address": "103K9 Nguyễn Hiền, P. Bách Khoa, Hai Bà Trưng, Hà Nội",
      "name": "Nem Nướng Nha Trang Bách Kinh Xây - Nguyễn Hiền",
      "latitude": 21.00091743,
      "longitude": 105.84740448,
      "description": "Utilis aperte taceo cursus cotidie tendo tener supplanto umquam. Trans anser thymum cinis architecto. Vulnero conitor at sunt curto cavus."
    },
    {
      "address": "Kiot 15, Ngõ 124 Vĩnh Tuy, P. Vĩnh Tuy, Hai Bà Trưng, Hà Nội",
      "name": "Mỳ Cay & Lẩu Cốc - Topokki Tiệm 1991",
      "latitude": 21.0007552,
      "longitude": 105.8768025,
      "description": "Crebro eligendi talio aggero tantum coniecto cultura. Bellicus cura minima verto ver territo voluptas. Aegrus sperno nesciunt defungo apparatus vorax."
    },
    {
      "address": "26 Ngõ 44 Đại La, P. Trương Định, Hai Bà Trưng, Hà Nội",
      "name": "Tiệm Nhà Chun - Mì Indomie, Kimbap & Trà Sữa",
      "latitude": 20.99711085,
      "longitude": 105.84889592,
      "description": "Solum adsum benigne vesica coniecto. Degenero cupiditate pariatur spargo certe circumvenio bardus balbus. Cui deleniti degero delectus tactus."
    },
    {
      "address": "18 Tam Trinh, P. Minh Khai, Hai Bà Trưng, Hà Nội",
      "name": "Bếp Ngon Cô Liên - Lẩu & Cơm - 18 Tam Trinh",
      "latitude": 20.99377603,
      "longitude": 105.86210905,
      "description": "Cubicularis aegrus delibero vulpes tero tredecim tantillus. Vergo defungo atavus theologus curiositas. Dedecor vere cognomen crustulum."
    },
    {
      "address": "162 Nguyễn An Ninh, P. Đồng Tâm, Hai Bà Trưng, Hà Nội",
      "name": "Nem nướng Nha Trang Béo Lung - Nguyễn An Ninh",
      "latitude": 20.9944003,
      "longitude": 105.84250597,
      "description": "Amitto clibanus coma arbustum decumbo civitas vis itaque. Alias eaque tempus vester denuo canto pax aiunt basium. Consectetur harum vel ultio vergo."
    },
    {
      "address": "339 Trần Khát Chân, P. Thanh Nhàn, Hai Bà Trưng, Hà Nội",
      "name": "Chả Cá Gia Nguyễn",
      "latitude": 21.009044,
      "longitude": 105.857148,
      "description": "Clibanus tondeo illo. Acerbitas turbo celo capio. Caries credo cruciamentum cruentus."
    },
    {
      "address": "227 Trần Đại Nghĩa, P. Đồng Tâm, Hai Bà Trưng, Hà Nội",
      "name": "Phúc Vịt - Đặc Sản Vịt",
      "latitude": 20.99779311,
      "longitude": 105.84615822,
      "description": "Voveo numquam collum attonbitus valetudo bibo tego voluptas vita crux. Cura caveo arceo incidunt verbum alveus voluntarius. Charisma compello provident curis universe traho facilis caelum."
    },
    {
      "address": "81 - 85 Đại Cồ Việt, Hai Bà Trưng, Hà Nội",
      "name": "Nhắng Nướng - Đại Cồ Việt",
      "latitude": 21.0077954,
      "longitude": 105.8453462,
      "description": "Angustus viscus synagoga atavus placeat. Trans cunctatio crebro suppellex tripudio sufficio ipsa cum. Adsum iste venia auditor autus tempore nostrum argentum."
    },
    {
      "address": "1A Tăng Bạt Hổ, P. Phạm Đình Hồ, Hai Bà Trưng, Hà Nội",
      "name": "Bò Tơ Quán Mộc Cơ Sở 9 - 1A Tăng Bạt Hổ",
      "latitude": 21.01789474,
      "longitude": 105.85853455,
      "description": "Porro suscipio vix. Temeritas deinde subvenio vito. Solitudo vae complectus."
    },
    {
      "address": "76A Mai Hắc Đế, P. Bùi Thị Xuân, Hai Bà Trưng, Hà Nội",
      "name": "Vua Chả Cá - Mai Hắc Đế",
      "latitude": 21.01389,
      "longitude": 105.851009,
      "description": "Bellicus totam culpo contigo vir labore cupressus. Tamdiu tricesimus nam concedo cupiditas civis una. Quaerat adsuesco deinde corpus creator tabernus aequus truculenter voluptatem summopere."
    },
    {
      "address": "76 Bùi Thị Xuân, P. Bùi Thị Xuân, Hai Bà Trưng, Hà Nội",
      "name": "Hamako - Soup Bào Ngư Vi Cá - Bùi Thị Xuân",
      "latitude": 21.0154375,
      "longitude": 105.8497516,
      "description": "Ager alias voluntarius eos. Supellex cunae tui caries cruciamentum appositus. Eius tero centum abduco cunctatio."
    },
    {
      "address": "478 Minh Khai, P. Vĩnh Tuy, Hai Bà Trưng, Hà Nội",
      "name": "Hải Sản Vạn Chài - Shop Online",
      "latitude": 20.997161,
      "longitude": 105.86656,
      "description": "Somnus communis varius caritas acervus tubineus cattus attero acsi vinco. Quisquam cicuta somniculosus. Debeo demulceo ager depraedor advoco rerum aperiam alias apto cometes."
    },
    {
      "address": "277 Trần Đại Nghĩa , Hai Bà Trưng, Hà Nội",
      "name": "Quán Toàn Béo - Ngan, Gà, Vịt",
      "latitude": 20.99636113,
      "longitude": 105.84564596,
      "description": "Verumtamen concido pauper ater correptius tertius demum. Adfero victoria summopere. Vita vicissitudo antepono hic."
    },
    {
      "address": "105Y9 - Tập Thể Kinh Tế Quốc Dân, Hai Bà Trưng, Hà Nội",
      "name": "Dũng Béo - Nem Nướng Nha Trang, Lẩu & Ốc Nóng",
      "latitude": 20.998228,
      "longitude": 105.846552,
      "description": "Arto bellicus spero asperiores truculenter. Cena amitto attollo decimus delectatio ager. Templum verumtamen debeo demulceo conor taedium vetus."
    },
    {
      "address": "54B Hàng Chuối, P. Đình Hồ, Hai Bà Trưng, Hà Nội",
      "name": "Quán M81 - Thịt Xiên Nướng - Hàng Chuối",
      "latitude": 21.0152953,
      "longitude": 105.8580234,
      "description": "Tersus numquam delibero. Volubilis strenuus cornu. Copiose dicta aiunt defetiscor debitis necessitatibus non perspiciatis vorago."
    },
    {
      "address": "18 Ngõ 187 Hồng Mai, P. Quỳnh Lôi, Hai Bà Trưng, Hà Nội",
      "name": "Papa’s Kitchen - Đồ Ăn Hàn Quốc & Cơm Trộn Healthy Gạo Lứt - Hồng Mai",
      "latitude": 20.99979316,
      "longitude": 105.85576286,
      "description": "Tego vomer velit curvo sumptus non. Textus comprehendo vesper charisma vomer coerceo cimentarius soluta apud. Vox verumtamen beneficium ascit aptus umerus defungo condico tamdiu."
    },
    {
      "address": "4/238 Dương Văn Bé, P. Vĩnh Tuy, Hai Bà Trưng, Hà Nội",
      "name": "Lẩu Thái Tomyum - Dương Văn Bé",
      "latitude": 20.99995877,
      "longitude": 105.87215459,
      "description": "Crastinus spectaculum utroque currus confido. Terra congregatio ante blanditiis certe atqui circumvenio. Altus conduco patria deputo commodo."
    },
    {
      "address": "Số 2 Lương Yên, Hai Bà Trưng, Hà Nội",
      "name": "Bún Chả Phú Mỹ - Bún Chả - Số 2 Lương Yên",
      "latitude": 21.0127772,
      "longitude": 105.8628122,
      "description": "Umerus aiunt voluptas ad sint. Amo tener temporibus suppono arca cohaero conduco. Confido absum id recusandae calco sursum."
    },
    {
      "address": "23 Trần Xuân Soạn, Hai Bà Trưng, Hà Nội",
      "name": "Viên Thả Lẩu Malaysia - 3ae Foods - Trần Xuân Soạn",
      "latitude": 21.01634,
      "longitude": 105.85475,
      "description": "Dignissimos molestias centum creator cohaero calcar. Quod tego curtus tego. Advenio synagoga clementia paulatim thermae stella cursus."
    },
    {
      "address": "4/26 Thọ Lão, P. Đống Mác, Hai Bà Trưng, Hà Nội",
      "name": "Nocdee - Lẩu Tự Sôi Hà Nội",
      "latitude": 21.011438,
      "longitude": 105.8572978,
      "description": "Vobis adipisci sponte ambulo confero. Venio audeo creptio ascit color sum. Aestus statua decretum amiculum sequi utrimque aro vulgaris."
    },
    {
      "address": "73 Lương Yên, P. Bạch Đằng, Hai Bà Trưng, Hà Nội",
      "name": "Thịt Xiên Bà Ngoại - Lương Yên",
      "latitude": 21.00925584,
      "longitude": 105.86329266,
      "description": "Curiositas casso viridis abscido defendo. Debitis perspiciatis umquam in cribro corporis arbor temporibus quisquam. Nam subiungo denuo cognatus cubicularis certus amplexus aliqua ulterius."
    },
    {
      "address": "56 Ngõ Tự Do, P. Trương Định, Hai Bà Trưng, Hà Nội",
      "name": "Bánh Mì Thịt Xiên Nướng - Tự Do",
      "latitude": 20.99730118,
      "longitude": 105.84635404,
      "description": "Volo comminor uxor quos cupressus strues administratio. Vulgivagus amoveo audentia tertius ventus constans error timor cerno. Depono sollicito sponte vae tollo neque degenero."
    },
    {
      "address": "112 E5 Tạ Quang Bửu, P. Bách Khoa, Hai Bà Trưng, Hà Nội",
      "name": "Gà Tươi Phạm Xá - Tạ Quang Bửu",
      "latitude": 21.002274,
      "longitude": 105.849265,
      "description": "Perspiciatis canto vinitor et approbo viriliter synagoga molestiae consequatur. Eum comparo stella civis abduco speciosus strues. Videlicet cimentarius exercitationem adsuesco abduco occaecati iste utor."
    },
    {
      "address": "31 Lê Đại Hành, P. Lê Đại Hành, Hai Bà Trưng, Hà Nội",
      "name": "Cơm Văn Phòng - Lẩu Thái & Sườn Nướng - Lê Đại Hành",
      "latitude": 21.0107580718864,
      "longitude": 105.8487571949914,
      "description": "Quia tot demulceo. Surgo color defleo beatus conqueror strues neque id uberrime depulso. Volaticus ver venio."
    },
    {
      "address": "24 Ngõ 132 Lò Đúc, P. Đống Mác, Hai Bà Trưng, Hà Nội",
      "name": "Tây Tây Mart - Lẩu Thái - Lò Đúc",
      "latitude": 21.0125892,
      "longitude": 105.8580025,
      "description": "Spoliatio teres voveo testimonium. Infit charisma cilicium textus. Atrox textilis arguo tot degero voro sopor uberrime virga curtus."
    },
    {
      "address": "Bia Đồng Đội 55 Võ Thị Sáu,  P. Thanh Nhàn, Hai Bà Trưng, Hà Nội",
      "name": "Vitamin Sea - Bún Hải Sản & Lẩu Hải Sản",
      "latitude": 21.00657715,
      "longitude": 105.85593838,
      "description": "Dignissimos auctus vomito conventus trepide. Adicio comes adinventitias suffragium abbas. Viriliter utroque coaegresco accusamus."
    },
    {
      "address": "170 Triệu Việt Vương, P.Bùi Thị Xuân, Hai Bà Trưng, Hà Nội",
      "name": "Chân & Cánh Gà Rang Muối - Triệu Việt Vương",
      "latitude": 21.0126573652601,
      "longitude": 105.8501987954781,
      "description": "Tergiversatio sortitus tyrannus appositus decerno antea soluta decor contabesco viduo. Benevolentia bis quia pecto aetas repellendus. Temeritas terebro vulariter candidus."
    },
    {
      "address": "1033 Bạch Đằng, P. Bạch Đằng, Hai Bà Trưng, Hà Nội",
      "name": "Bò Tơ Tây Ninh Tài Sanh - Bạch Đằng",
      "latitude": 21.01036883,
      "longitude": 105.86791534,
      "description": "Convoco arbitro veritas ars tabella caveo aegrotatio nemo cupio. Utpote nemo delectatio turbo curo comptus verbum venia sulum attero. Cicuta occaecati creber."
    },
    {
      "address": "317 Trần Đại Nghĩa, P. Đồng Tâm, Hai Bà Trưng, Hà Nội",
      "name": "Zô Zô Quán - Lẩu & Nướng",
      "latitude": 20.995988,
      "longitude": 105.845553,
      "description": "Umerus vulnero audeo cenaculum candidus. Voluntarius pauper delinquo. Defero denego volubilis unde unde thesaurus absque."
    },
    {
      "address": "52 Ngõ 204 Lê Thanh Nghị, Hai Bà Trưng, Hà Nội",
      "name": "Bếp 4 Mùa",
      "latitude": 21.002726,
      "longitude": 105.844296,
      "description": "Commodo sonitus umquam venustas venio urbs defleo. Theatrum acerbitas thesaurus temperantia perferendis ipsum. Voluptate crur ambulo."
    },
    {
      "address": "109B2 Ngõ Trại Găng (237 Phố Bạch Mai), Hai Bà Trưng, Hà Nội",
      "name": "Quán Ốc Bà Chu",
      "latitude": 21.003254,
      "longitude": 105.852784,
      "description": "Solum amiculum veritas amo vilitas civis aptus. Deduco maiores victoria adsum taedium in denique. Vulgaris atque pecto totidem aestivus volup demens accendo."
    },
    {
      "address": "15 Trần Khát Chân, P. Thanh Lương, Hai Bà Trưng, Hà Nội",
      "name": "83 BBQ - Lẩu Nướng - 15 Trần Khát Chân",
      "latitude": 21.0082982,
      "longitude": 105.865556,
      "description": "Quas comes aufero. In abstergo accommodo. Admiratio quibusdam adduco perferendis curto currus vergo spiculum virga."
    },
    {
      "address": "130a Tập Thể Dược Phẩm 2, P. Đồng Nhân, Hai Bà Trưng, Hà Nội",
      "name": "Bếp Thỏ Xinh",
      "latitude": 21.01102116,
      "longitude": 105.85456489,
      "description": "Pauci crepusculum aiunt barba amitto delectus. Molestias custodia vinculum defendo appono ceno verbum. Illum advoco conscendo cum tempora solus demulceo suscipit calamitas capto."
    },
    {
      "address": "508 Trần Khát Chân, P. Phố Huế, Hai Bà Trưng, Hà Nội",
      "name": "Tiệm Ăn Min Béo - Bún Riêu Cua - 508 Trần Khát Chân",
      "latitude": 21.0088882,
      "longitude": 105.8530427,
      "description": "Creo thema synagoga damnatio valetudo placeat. Altus defaeco provident tot volo pax coniuratio vilitas tredecim voluptas. Vomer volo placeat testimonium arbitro."
    },
    {
      "address": "67 - 69 Trần Nhân Tông, P. Nguyễn Du, Hai Bà Trưng, Hà Nội",
      "name": "Nhà Hàng Xanh - Lẩu Bò Chua Cay & Lẩu Cá Quả Chua Cay - 67/69 Trần Nhân Tông",
      "latitude": 21.0170845,
      "longitude": 105.8430199,
      "description": "Administratio validus tamisium curso volup adamo utrimque ducimus. Curis calco virga volo. Aliqua corrupti commodo campana deputo curis vere."
    },
    {
      "address": "105K108B Nguyễn Hiền, P. Bách Khoa, Hai Bà Trưng, Hà Nội",
      "name": "Nhai Nhai Chew Chew - Buffet Nướng - 105K108B Nguyễn Hiền",
      "latitude": 21.0011867,
      "longitude": 105.8476446,
      "description": "Aer demens basium quibusdam. Super teneo amet. Denique audax cerno curis ver accommodo depopulo dolorem copiose accommodo."
    },
    {
      "address": "151 Kim Ngưu, P. Thanh Lương, Hai Bà Trưng, Hà Nội",
      "name": "Lẩu Béo - Lẩu & Nướng - 151 Kim Ngưu",
      "latitude": 21.006279,
      "longitude": 105.86143,
      "description": "Totus vito conservo decerno cubitum. Crepusculum culpo approbo annus. Aeternus abundans tepidus stella ubi solvo appello."
    },
    {
      "address": "7 TT 2A Ngõ 622 Minh Khai, P. Vĩnh Tuy, Hai Bà Trưng, Hà Nội",
      "name": "Panxin - Hải Sản - Minh Khai",
      "latitude": 20.9984107,
      "longitude": 105.8709933,
      "description": "Custodia curvo benevolentia truculenter deinde sordeo laboriosam cupressus creber adaugeo. Debitis explicabo vinum cunctatio quasi vapulus arbor. Dolorum valetudo tollo eum nesciunt ambitus tergo vindico ratione."
    },
    {
      "address": "213 Lò Đúc, P. Đống Mác, Hai Bà Trưng, Hà Nội",
      "name": "Lẩu Vy - Nem Nướng Nha Trang",
      "latitude": 21.009293,
      "longitude": 105.86185,
      "description": "Custodia ventito cursim agnitio celer. Coruscus verumtamen vereor spiculum crudelis toties copiose. Officiis talus beneficium timidus strenuus surculus contra degusto campana."
    },
    {
      "address": "10 Tạ Quang Bửu, P. Bách Khoa, Hai Bà Trưng, Hà Nội",
      "name": "Nướng Sài Gòn - 10 Tạ Quang Bửu",
      "latitude": 21.002475,
      "longitude": 105.849647,
      "description": "Cuppedia varius vespillo damno. Cum timor triduana aperio comprehendo taceo dapifer. Tondeo adhaero vulgo uter dignissimos adsuesco tamquam casus taceo."
    },
    {
      "address": "12A Ngách 69B Ngõ 121 Kim Ngưu, P.Thanh Lương, Hai Bà Trưng, Hà Nội",
      "name": "Nem Nướng Nha Trang Mộc An",
      "latitude": 21.00627155,
      "longitude": 105.86378324,
      "description": "Spectaculum delectus tepidus arx textor facilis trado cicuta vitium acerbitas. Autem aspernatur tempus ultra acidus amoveo maxime vitae texo. Theologus civis desidero placeat conscendo."
    },
    {
      "address": "Đối Diện 34 Thọ Lão, P. Đống Mác, Hai Bà Trưng, Hà Nội",
      "name": "Bún Bò Trộn & Bún Mạch Tràng - Thọ Lão",
      "latitude": 21.011496,
      "longitude": 105.857946,
      "description": "Vergo defleo tollo inflammatio commemoro velit defendo trepide. Usus nesciunt tunc apto. Caterva ullus vinitor."
    },
    {
      "address": "51B Đại Cồ Việt , P. Bách Khoa, Hai Bà Trưng, Hà Nội",
      "name": "Tanka Quán - Chân Gà Nướng & Cánh Gà Nướng - Đại Cồ Việt",
      "latitude": 21.00821251,
      "longitude": 105.84705087,
      "description": "Capto ante succedo cribro aequus venio amet. Tergiversatio aestus corrigo aequus tunc bene stabilis. Valeo sol asperiores."
    },
    {
      "address": "171 Phố Trần Đại Nghĩa, P. Bách Khoa, Hai Bà Trưng, Hà Nội",
      "name": "Gà Tươi Mạnh Hoạch - Trần Đại Nghĩa",
      "latitude": 21.00084441,
      "longitude": 105.84541657,
      "description": "Vergo clamo decens aeneus tandem confido ea aegrus. Considero correptius coniuratio solutio adnuo. Caste sequi tenuis attonbitus sollers abstergo."
    },
    {
      "address": "305 Trần Đại Nghĩa, P. Trương Định, Hai Bà Trưng, Hà Nội",
      "name": "Thiên Ân - Gà Mẹt & Gà Không Lối Thoát",
      "latitude": 20.996347,
      "longitude": 105.84571,
      "description": "Blanditiis ventus amplitudo canonicus verto. Repellat vox sol consectetur cibo voro ut. Cuppedia aveho vomica antepono angelus atrox ratione communis."
    },
    {
      "address": "149 Lò Đúc, P. Đống Mác, Hai Bà Trưng, Hà Nội",
      "name": "Quán 20 - Bún Lòng & Chân Gà Rang Muối - Lò Đúc",
      "latitude": 21.01084556,
      "longitude": 105.85996118,
      "description": "Casso peccatus cubicularis copiose coerceo sono fugit defetiscor. Crastinus temptatio caecus dapifer turba ter error conventus. Una perferendis vulpes adipiscor sonitus corroboro apto sumptus."
    },
    {
      "address": "13 Mai Hắc Đế, Hai Bà Trưng, Hà Nội",
      "name": "Nhà Hàng Phương Nam - Món Ngon Miền Nam - Mai Hắc Đế",
      "latitude": 21.016315,
      "longitude": 105.850859,
      "description": "Viduo confero depromo sint. Canto repellendus abbas turbo totam solitudo sollicito coadunatio minima. Coruscus brevis colligo curia deorsum artificiose."
    },
    {
      "address": "16TT2A Ngõ 622 Minh Khai, Hai Bà Trưng, Hà Nội",
      "name": "Kim Kê Quán - Gà Nướng Lu",
      "latitude": 20.997874,
      "longitude": 105.871046,
      "description": "Adflicto absorbeo despecto impedit tenetur sollicito celer deduco deduco. Corporis tabula vere undique aequus thesis. Aptus adipiscor utpote aegrotatio video consequuntur summopere tolero."
    },
    {
      "address": "287 Trần Đại Nghĩa, Hai Bà Trưng, Hà Nội",
      "name": "Bích Béo - Cháo Lòng & Bún Đậu",
      "latitude": 20.996225,
      "longitude": 105.845674,
      "description": "Tenuis antepono capitulus somniculosus pectus. Contabesco ver absorbeo adfectus audeo admoneo taceo terra sed non. Cometes comminor quam certe stultus creta certus conturbo tergo."
    },
    {
      "address": "63 Nguyễn Đình Chiểu, P. Lê Đại Hành, Hai Bà Trưng, Hà Nội",
      "name": "King Sushi & Lẩu - Nguyễn Đình Chiểu",
      "latitude": 21.0120184,
      "longitude": 105.8460895,
      "description": "Cruentus alius terror necessitatibus amissio basium decens vulariter curtus repellendus. Carpo tamquam quasi thorax carpo cupressus officiis talis. Contabesco conicio corrupti cohors volutabrum quia vitium sunt trado utique."
    },
    {
      "address": "59 Trần Nhân Tông, P. Nguyễn Du, Hai Bà Trưng, Hà Nội",
      "name": "Furyu - Cơm & Ẩm Thực Nhật Bản - Trần Nhân Tông",
      "latitude": 21.0168715,
      "longitude": 105.8488644,
      "description": "Defessus voluptas in cicuta supplanto vere. Ambulo tenax accusantium vobis. Aequus thymbra uredo demo praesentium asporto vetus deludo capio."
    },
    {
      "address": "289 Trần Khát Chân, P. Thanh Nhàn, Hai Bà Trưng, Hà Nội",
      "name": "Bún Riêu Cua Út Phương - Trần Khát Chân",
      "latitude": 21.00897323,
      "longitude": 105.85860805,
      "description": "Odit rem avaritia debeo blandior cavus delego. Crapula adulescens temperantia valetudo blandior amissio depulso vulgo. Caritas cariosus ad auxilium."
    },
    {
      "address": "301 Trần Đại Nghĩa, P. Trương Định, Hai Bà Trưng, Hà Nội",
      "name": "Ếch 46 - Lẩu Ếch Măng Cay",
      "latitude": 20.99590225,
      "longitude": 105.84556818,
      "description": "Advenio titulus acer timidus molestias venustas solium incidunt. Aestus carcer sursum decimus cribro adaugeo vacuus. Qui temporibus eos cervus una supellex."
    },
    {
      "address": "63 Trần Nhân Tông, P. Nguyễn Du, Hai Bà Trưng, Hà Nội",
      "name": "Trư Ký Hotpot - Lẩu 1 Người",
      "latitude": 21.0169877,
      "longitude": 105.8484864,
      "description": "Celebrer paulatim cum. Casso artificiose attollo cubitum peccatus cognatus convoco uredo. Velit deorsum cado."
    },
    {
      "address": "284 Bà Triệu, Hai Bà Trưng, Hà Nội",
      "name": "Nhà Hàng Lẩu Phát - Bà Triệu",
      "latitude": 21.012808,
      "longitude": 105.849112,
      "description": "Trucido et volup delinquo vaco vergo vox quod. Arca cum delicate molestiae contigo quae adulatio sublime adstringo bestia. Theatrum appello officia approbo culpa vulnero defungo."
    },
    {
      "address": "602 Minh Khai, Hai Bà Trưng, Hà Nội",
      "name": "Phở Thanh Hà - Minh Khai",
      "latitude": 20.999171,
      "longitude": 105.870629,
      "description": "Defaeco adimpleo cometes cohibeo. Conscendo eligendi magni sordeo accusantium. Iste degero deporto curatio adsuesco sapiente volutabrum corrupti circumvenio."
    },
    {
      "address": "111Y9 Ngõ 213 Phố Trần Đại Nghĩa, P.Đồng Tâm, Hai Bà Trưng, Hà Nội",
      "name": "MáLa MáLa - Lẩu Nướng Trung Hoa",
      "latitude": 20.99826641,
      "longitude": 105.84671523,
      "description": "Mollitia demoror celer ante amplus certe administratio compello. Adulescens conduco creo coniecto ambitus consectetur. Aedificium surculus tenuis consequatur vaco conduco cruciamentum."
    },
    {
      "address": "11 Tạ Quang Bửu , Hai Bà Trưng, Hà Nội",
      "name": "Bánh Mì Thịt Xiên - Tạ Quang Bửu",
      "latitude": 21.0048173,
      "longitude": 105.84718991,
      "description": "Sodalitas aspicio traho denego spes cunabula canis sophismata adaugeo. Asperiores aequitas terror patrocinor vigor. Alienus templum solutio aperte natus carpo."
    },
    {
      "address": "2 Ngõ 183 Trần Đại Nghĩa, P. Đồng Tâm, Hai Bà Trưng, Hà Nội",
      "name": "Ốc Quỳnh - Ốc Mút & Chân Gà Nướng - 2 Ngõ 183 Trần Đại Nghĩa",
      "latitude": 20.999247,
      "longitude": 105.84558,
      "description": "Aeger cumque deleniti depopulo texo dens voluptate. Aspicio claustrum terror verumtamen cuius tunc iure charisma consequuntur conitor. Absque apto adflicto vis voro claustrum ventosus aureus voluptas viduo."
    },
    {
      "address": "53 Trần Khát Chân, P. Bạch Đằng, Hai Bà Trưng, Hà Nội",
      "name": "Chân Gà Nướng Cô Thái - Trần Khát Chân",
      "latitude": 21.00891237,
      "longitude": 105.86458136,
      "description": "Alius comis vita suffragium. Somniculosus vomer surculus cohors admitto deludo sit beatus deleniti. Defessus verus speciosus adnuo labore."
    },
    {
      "address": "39 Ngõ 27 Đại Cồ Việt, P. Cầu Dền, Hai Bà Trưng, Hà Nội",
      "name": "Bò Nầm Nướng Hải Phạm - 39 Ngõ 27 Đại Cồ Việt",
      "latitude": 21.0073233,
      "longitude": 105.8491673,
      "description": "Talis alius abbas armarium uxor socius nesciunt vobis argumentum. Thymbra deleo delinquo. Acidus spectaculum vigor aetas timor placeat."
    },
    {
      "address": "107BY9 Ngõ Tự Do, P. Đồng Tâm, Hai Bà Trưng, Hà Nội",
      "name": "Quán Cơm Tự Do - Cơm Gà & Cơm Rang",
      "latitude": 20.9990806,
      "longitude": 105.84783736,
      "description": "Vilicus timor crastinus est comprehendo tumultus sono amiculum cupio. Id crapula triduana claro. Ratione theca adopto suspendo valetudo stillicidium video voluptates cetera suffoco."
    },
    {
      "address": "102 Ngõ 84 Phố 8/3, P. Quỳnh Mai, Hai Bà Trưng, Hà Nội",
      "name": "Nem Nướng Nha Trang 79 - Phố 8/3",
      "latitude": 21.00070672,
      "longitude": 105.85933483,
      "description": "Arbustum ambitus alioqui communis. Barba nobis sufficio iste animus defungo acer cado suggero creptio. Defaeco terror condico."
    },
    {
      "address": "9 Trần Khánh Dư, P. Bạch Đằng, Hai Bà Trưng, Hà Nội",
      "name": "Bảo Quốc Quán - Lẩu & Các Món Nhậu",
      "latitude": 21.013846590004,
      "longitude": 105.862674638623,
      "description": "Correptius necessitatibus alias tristis callide usus adeptio. Vilis candidus appello defleo perferendis patria defetiscor antiquus cavus. Vomica reiciendis dolorem tabernus suscipio textor."
    },
    {
      "address": "Chung Cư 124 Minh Khai, P.Minh Khai, Hai Bà Trưng, Hà Nội",
      "name": "Bánh Đa Cua Trộn & Nem Nướng Nha Trang - 124 Minh Khai",
      "latitude": 20.99547787,
      "longitude": 105.85274132,
      "description": "Autem tergo cimentarius socius statua traho. Decretum tabesco thesis anser dens repellendus tenuis curso. Cui placeat celebrer decipio templum."
    },
    {
      "address": "5 Lò Đúc, Hai Bà Trưng, Hà Nội",
      "name": "Lẩu Ếch Lò Đúc",
      "latitude": 21.018252,
      "longitude": 105.855119,
      "description": "Aggero trucido arceo texo verus copiose. Spiculum terror textor eveniet atavus. Curis desparatus amissio creptio pariatur."
    },
    {
      "address": "15 Chùa Quỳnh, Hai Bà Trưng, Hà Nội",
      "name": "MIN - Lẩu Sạch & Chân Cánh Gà",
      "latitude": 20.99963447,
      "longitude": 105.85744421,
      "description": "Spes culpo annus averto totus torrens annus tumultus demulceo depono. Curvo vapulus confido calculus valde argumentum. Ventus civis abbas."
    },
    {
      "address": "Kiot 9B Green Pearl 378 Minh Khai, P. Vĩnh Tuy, Hai Bà Trưng, Hà Nội",
      "name": "Cô Thuỷ Béo - Bún Riêu Tóp Mỡ Sườn Sụn & Đặc Sản Lẩu Cua Đồng - Minh Khai",
      "latitude": 20.9964837,
      "longitude": 105.86354777,
      "description": "Tondeo bis apud celo canis vae. Tabernus terga tego. Voluptas aut asporto currus."
    },
    {
      "address": "Ngõ 622 Minh Khai, P. Vĩnh Tuy, Hai Bà Trưng, Hà Nội",
      "name": "Phở Đắc - 103 Tòa Nhà Amber Riverside",
      "latitude": 20.997239,
      "longitude": 105.8711492,
      "description": "Deinde tantum curatio considero textor vallum corona. Adnuo chirographum at quia libero cupiditate trans peccatus supellex. Canonicus tersus paens succurro vivo crustulum vere."
    },
    {
      "address": "2 Thái Phiên, Hai Bà Trưng, Hà Nội",
      "name": "Đèn Lồng Quán - Lẩu Thái Tomyum",
      "latitude": 21.01056474,
      "longitude": 105.8512608,
      "description": "Vitae tracto quos. Bellum tenus triumphus. Cubicularis confero argentum."
    },
    {
      "address": "58 Trần Xuân Soạn, P. Phạm Đình Hổ, Hai Bà Trưng, Hà Nội",
      "name": "SBT Sabay Thai - Ẩm Thực Thái Lan & Lẩu Thái - Trần Xuân Soạn",
      "latitude": 21.0170237,
      "longitude": 105.8533067,
      "description": "Sum tenus patrocinor. Damno votum vehemens truculenter cado deficio bardus distinctio vindico. Vito cotidie aedificium absconditus."
    },
    {
      "address": "P4 - Nhà 8, Tập Thể Đại Học KTQD, Ng. Tự Do, P. Đồng Tâm, Hai Bà Trưng, Hà Nội",
      "name": "Miu Xi - Ăn Vặt & Lẩu - Tập Thể Đại Học Kinh Tế Quốc Dân",
      "latitude": 20.99904,
      "longitude": 105.84785,
      "description": "Beneficium approbo decimus quos aperiam tardus expedita synagoga tactus. Cena temeritas vetus aptus testimonium magni degusto capillus talus triumphus. Laborum adipisci amo sortitus."
    },
    {
      "address": "19 Đoàn Trần Nghiệp, P. Lê Đại Hành, Hai Bà Trưng, Hà Nội",
      "name": "Bò Nhúng Zấm Huyền Xẩm - Đoàn Trần Nghiệp",
      "latitude": 21.01207831,
      "longitude": 105.84827054,
      "description": "Deporto uter addo alveus theologus. A ager eaque tempore tantum supellex sopor. Cribro recusandae alii acer."
    },
    {
      "address": "42 Đoàn Trần Nghiệp, P. Lê Đại Hành, Hai Bà Trưng, Hà Nội",
      "name": "SC Quán - Cơm Gà & Lẩu Nướng - 42 Đoàn Trần Nghiệp",
      "latitude": 21.01194427,
      "longitude": 105.8484729,
      "description": "Dapifer quisquam temptatio defero vereor compello subvenio vicinus sit aduro. Baiulus demum occaecati. Vaco verumtamen thema arma clam correptius cursim umbra."
    },
    {
      "address": "378 Trần Khát Chân, Hai Bà Trưng, Hà Nội",
      "name": "Đệ Nhất Quán - Lẩu Ếch",
      "latitude": 21.00925178,
      "longitude": 105.85736051,
      "description": "Varietas cunae est cohors vulgivagus reiciendis appono quos. Vetus blandior delicate timidus mollitia armarium. Cimentarius deripio earum dolorum rem vigor libero."
    },
    {
      "address": "233 Trần Đại Nghĩa, Hai Bà Trưng, Hà Nội",
      "name": "Nhà Hàng Việt Chinh - Chuyên Vịt Cỏ Vân Đình",
      "latitude": 20.997783,
      "longitude": 105.845976,
      "description": "Amplus audacia careo allatus laborum tolero teres textor vomica animadverto. Inventore deprimo tersus. Ver bellicus solitudo vobis causa trepide atque quasi sopor aufero."
    },
    {
      "address": "Số Nhà 85 Ngách 41 Ngõ 622 Minh Khai, P. Vĩnh Tuy, Hai Bà Trưng, Hà Nội",
      "name": "Lòng Việt Quán - Cháo Lòng, Bún Lòng & Lẩu Cháo Lòng",
      "latitude": 20.99600231,
      "longitude": 105.87163199,
      "description": "Debitis vado ex aedificium totidem depromo. Soleo sub absum admoneo tepesco aut sollers. Cuius ars cursim condico."
    },
    {
      "address": "331 Trần Khát Trân, P. Thanh Nhàn, Hai Bà Trưng, Hà Nội",
      "name": "Nam Dương Tửu - Trần Khát Trân",
      "latitude": 21.008928,
      "longitude": 105.857398,
      "description": "Coniecto aestivus quasi. Architecto peccatus subnecto tui una vulgaris paens. Turba verus corrigo animadverto universe capitulus argumentum solium."
    },
    {
      "address": "425B Bạch Mai, P. Trương Định, Hai Bà Trưng, Hà Nội",
      "name": "Bò Nầm Nướng Nhung Xinh - Anh Cẩu - Bạch Mai",
      "latitude": 20.9982762,
      "longitude": 105.8503471,
      "description": "Terminatio magnam autus supplanto nemo atrox. Tenus urbanus nam corporis abutor aetas approbo absens. Adduco currus atrocitas urbs."
    },
    {
      "address": "16 Nguyễn Đình Chiểu, P. Lê Đại Hành, Hai Bà Trưng, Hà Nội",
      "name": "Mani Thai - Ẩm Thực Thái Lan",
      "latitude": 21.01430748,
      "longitude": 105.84700077,
      "description": "Excepturi paens uredo virga. Ustilo amor accommodo voluptas clementia decretum. Colo vitium curto bonus tardus creator ratione defleo sonitus solium."
    },
    {
      "address": "Tầng 1, Tầng 1, T3 Times City, 458 Minh Khai, P. Vĩnh Tuy, Hai Bà Trưng, Hà Nội",
      "name": "Nhà Huế - Times City",
      "latitude": 20.99536,
      "longitude": 105.869482,
      "description": "Confugo cauda alienus caput benigne celer iusto bestia amplitudo. Vae aequitas adeptio creta. Taceo stella viscus."
    },
    {
      "address": "17 Lô TT2A Ngõ 622 Minh Khai, Khu Biệt Thự Liền Kề Times City, P. Vĩnh Tuy, Hai Bà Trưng, Hà Nội",
      "name": "Phố Hàng Quà - Lẩu Việt & Gà Nướng Lu",
      "latitude": 20.997671,
      "longitude": 105.870938,
      "description": "Voluptatem vulgo perspiciatis. Stultus inventore subiungo aro excepturi approbo. Animus cuppedia animi animus."
    },
    {
      "address": "Ngõ 31 Trần Bình Trọng, P. Nguyễn Du, Hai Bà Trưng, Hà Nội",
      "name": "Lẩu Thái 31 - Mỳ Thái Tomyum & Lẩu 1 Người",
      "latitude": 21.018881,
      "longitude": 105.8441409,
      "description": "Cunctatio stipes tergeo venio recusandae abduco suspendo. Cetera voluptatem cursus aegre creta occaecati desidero votum. Pecto dens pauci quisquam."
    },
    {
      "address": "35 Lê Đại Hành, P. Lê Đại Hành, Hai Bà Trưng, Hà Nội",
      "name": "Ngan Cham Chu - Thiên Hạ Đệ Nhất Ngan",
      "latitude": 21.01123,
      "longitude": 105.848658,
      "description": "Collum tabella suspendo adipisci degusto paens vomer conscendo. Adipiscor vulticulus vicinus degenero casus adipiscor. Aperiam auxilium cruciamentum."
    },
    {
      "address": "61 Đại Cồ Việt, Hai Bà Trưng, Hà Nội",
      "name": "Bò Ngon Phú Quý",
      "latitude": 21.0078987241504,
      "longitude": 105.846225321293,
      "description": "Voluptatibus valde rerum tremo. Spoliatio tenax adduco culpa viriliter theca. Accusator consequuntur demo optio curtus vulticulus."
    },
    {
      "address": "80 Ngô Thì Nhậm, P. Phạm Đình Hổ, Hai Bà Trưng, Hà Nội",
      "name": "Lẩu Quỳnh - Lẩu Thái Hải Sản",
      "latitude": 21.015137,
      "longitude": 105.853178,
      "description": "Cernuus cur certus caute eum xiphias cras accedo triduana. Tutamen depono tardus voluptate. Coerceo sapiente tepesco ager aegrotatio vinitor cetera auctor congregatio curtus."
    },
    {
      "address": "74 Bùi Thị Xuân, P. Nguyễn Du, Hai Bà Trưng, Hà Nội",
      "name": "Kiều Quán - 74 Bùi Thị Xuân",
      "latitude": 21.0155464,
      "longitude": 105.8497974,
      "description": "Sponte atrox territo cunctatio compono crepusculum. Correptius voco solum addo peccatus vivo audio speciosus. Vox tot verto."
    },
    {
      "address": "325 Trần Đại Nghĩa, P. Trương Định, Hai Bà Trưng, Hà Nội",
      "name": "Lẩu Sơn Tùng",
      "latitude": 20.995334,
      "longitude": 105.84531,
      "description": "Custodia voluptates qui aureus conatus tollo. Vicissitudo clam balbus. Curis absque aequitas vinculum alii aliqua suspendo repudiandae."
    },
    {
      "address": "52 Yên Bái 2, P. Phố Huế, Hai Bà Trưng, Hà Nội",
      "name": "Bún Bò Nam Bộ - Hai Chị Em - 52 Yên Bái 2",
      "latitude": 21.0092667,
      "longitude": 105.8522145,
      "description": "Coerceo conscendo aro callide deporto voluptate tunc volup cunae. Ullam vesco pax basium capitulus. Cuius argentum sub odit angulus vomica vestrum sumo."
    },
    {
      "address": "57 Trần Xuân Soạn, P. Phạm Đình Hổ, Hai Bà Trưng, Hà Nội",
      "name": "Bún Riêu Cô Hương Béo - Trần Xuân Soạn",
      "latitude": 21.01681497,
      "longitude": 105.85314842,
      "description": "Spes deprecator casus viscus verto animadverto. Ascit volubilis aliqua facere curso usus. Curis deludo cimentarius cerno crastinus baiulus doloribus claro itaque."
    },
    {
      "address": "91B Võ Thị Sáu, P. Thanh Nhàn, Hai Bà Trưng, Hà Nội",
      "name": "TuGi - Đồ Hàn & Lẩu Nướng",
      "latitude": 21.00707668,
      "longitude": 105.85482484,
      "description": "Assumenda illum appono crinis varietas confugo attollo suggero patria patior. Necessitatibus suffragium crudelis pecto vere temperantia contra. Dignissimos acsi amplexus vesper nobis victus culpa."
    },
    {
      "address": "11 Vân Đồn, P. Bạch Đằng, Hai Bà Trưng, Hà Nội",
      "name": "Ruby - Thịt Xiên Nướng & Cháo Sườn Sụn",
      "latitude": 21.014233,
      "longitude": 105.864797,
      "description": "Textor vitae valeo amita cunabula bene. Amplitudo usus capto venustas cumque bis. Calamitas corpus velit vix tumultus traho abutor."
    },
    {
      "address": "83 Tuệ Tĩnh, P. Lê Đại Hành, Hai Bà Trưng, Hà Nội",
      "name": "Vị Xưa - Ẩm Thực Ba Miền",
      "latitude": 21.015199,
      "longitude": 105.848021,
      "description": "Versus cenaculum decipio est conturbo turpis approbo. Vulgus facilis textor stips tribuo taceo teneo sufficio decumbo. Agnitio dolorem damnatio tot atque."
    },
    {
      "address": "7 Lô TT2A Ngõ 622 Minh Khai, P. Vĩnh Tuy, Hai Bà Trưng, Hà Nội",
      "name": "Ông Béo - Lẩu Nướng Online",
      "latitude": 20.996675,
      "longitude": 105.87101,
      "description": "Quidem ea reprehenderit surculus. Solio amicitia neque vita utique minus delectus virga carus. Cresco suspendo aqua anser utilis sopor aspicio."
    },
    {
      "address": "228 Dương Văn Bé, P. Vĩnh Tuy, Hai Bà Trưng, Hà Nội",
      "name": "Gà Nướng Lu X Ô - 228 Dương Văn Bé",
      "latitude": 20.996052,
      "longitude": 105.873926,
      "description": "Vulpes cado suggero aperio utilis damno crebro spectaculum subseco. Sopor adamo appello. Sumo cilicium certe."
    },
    {
      "address": "13 - 15 Ngô Thì Nhậm, P. Ngô Thì Nhậm, Hai Bà Trưng, Hà Nội",
      "name": "Chaka Restaurant - Nhà Hàng Chả Cá",
      "latitude": 21.017706,
      "longitude": 105.852966,
      "description": "Aequus varius cedo bardus fugiat vorago curo. Velociter sufficio surculus candidus peccatus tondeo colo quidem cenaculum. Demum benevolentia ipsam aequus decimus delinquo vesper."
    },
    {
      "address": "9A1 Tạ Quang Bửu, P. Bách Khoa, Hai Bà Trưng, Hà Nội",
      "name": "Bún Riêu Truyền Thống Bà Tam - Tạ Quang Bửu",
      "latitude": 21.0024983,
      "longitude": 105.8487788,
      "description": "In voluptate molestias cibo pel. Spiculum sordeo theatrum. Balbus denuo tredecim apparatus."
    },
    {
      "address": "Shophouse 6, CC Amber Riverside, Ngõ 622 Minh Khai, P. Vĩnh Tuy, Hai Bà Trưng, Hà Nội",
      "name": "Bún Riêu Cô Hương Béo - Minh Khai",
      "latitude": 20.9975334,
      "longitude": 105.871109,
      "description": "Usque agnitio aliquam demitto tabernus. Earum tamen voluntarius asperiores inventore tardus. Statua occaecati labore volup volubilis suppellex dicta vitium despecto."
    },
    {
      "address": "377 Trần Khát Chân, P. Thanh Nhàn, Hai Bà Trưng, Hà Nội",
      "name": "Lẩu 377 - Bò Nhúng Giấm",
      "latitude": 21.0091036,
      "longitude": 105.856816,
      "description": "Vorago condico enim soluta vivo demulceo volva. Capillus adsum tabula porro suscipio. Speciosus vinitor sol armarium cunae."
    },
    {
      "address": "35 Lãng Yên, P. Thanh Lương, Hai Bà Trưng, Hà Nội",
      "name": "Hàu Nướng - 35 Lãng Yên",
      "latitude": 21.00940568,
      "longitude": 105.86712737,
      "description": "Compono tersus vulticulus voluptas crustulum. Vita tempora vomica tempus sumo voluntarius appello correptius. Coruscus terror capto caste contego utpote terminatio."
    },
    {
      "address": "19 Vân Hồ 2, P. Lê Đại Hành, Hai Bà Trưng, Hà Nội",
      "name": "Mỹ Vị Quán Cổ Trấn Trà",
      "latitude": 21.012099,
      "longitude": 105.846185,
      "description": "Uter appositus vicissitudo terror aspernatur nulla dicta crudelis appello. Vociferor appello aut. Consuasor cimentarius creta accommodo."
    },
    {
      "address": "823 Bạch Đằng, P. Bạch Đằng, Hai Bà Trưng, Hà Nội",
      "name": "Trâu Tơ Tây Bắc",
      "latitude": 21.010856,
      "longitude": 105.867407,
      "description": "Universe templum angulus voluptates cenaculum. Audentia textus curtus timidus colligo. Aliqua apud aiunt."
    },
    {
      "address": "461 Minh Khai , P. Vĩnh Tuy, Hai Bà Trưng, Hà Nội",
      "name": "Bà Rơm – Bún nem nướng Nha Trang – Minh Khai",
      "latitude": 20.9987046806518,
      "longitude": 105.8676656954777,
      "description": "Summopere adsum bardus dedico adstringo. Umquam civis beatae. Angustus clam capillus quidem complectus recusandae sol tero."
    },
    {
      "address": "238 Lò Đúc, P. Đống Mác, Hai Bà Trưng, Hà Nội",
      "name": "Ngan Quê, Phở Gà Đông Tảo & Lẩu Gà - Lò Đúc",
      "latitude": 21.009977,
      "longitude": 105.860535,
      "description": "Vere sortitus vigor decumbo arguo tantillus constans aduro suggero tenuis. Cattus compono debitis coepi uberrime chirographum abbas blandior appositus valde. Aurum recusandae vereor consequatur magnam."
    },
    {
      "address": "Ngã 4 Thọ Lão, P.  Hương Viên, Hai Bà Trưng, Hà Nội",
      "name": "Thịt Xiên Nướng - Thọ Lão",
      "latitude": 21.011022,
      "longitude": 105.85649,
      "description": "Decens dolore dolore saepe demum venio aperio antiquus conatus adipisci. Cultura vulgaris vinculum contra tempora supplanto torrens vox validus. Viriliter arbitro territo."
    },
    {
      "address": "122 Lò Đúc, P. Đống Mác, Hai Bà Trưng, Hà Nội",
      "name": "Út Gạo - Bánh Canh Ghẹ Tươi - Lò Đúc",
      "latitude": 21.013295,
      "longitude": 105.858055,
      "description": "Cogito vox tam adaugeo uxor. Bardus attero supellex adimpleo ascit sit. Solvo sopor adamo deprecator vespillo trans officiis vestrum corroboro."
    },
    {
      "address": "74 Trương Định, Hai Bà Trưng, Hà Nội",
      "name": "Nướng Nhà Mắm - Lẩu & Nướng",
      "latitude": 20.99412,
      "longitude": 105.849665,
      "description": "Ipsa abundans bonus spiritus compono averto. Curiositas nulla truculenter quisquam cribro. Trepide architecto architecto corrupti anser videlicet curo desipio voluptatem porro."
    },
    {
      "address": "128 Nguyễn Khoái, P. Thanh Lương, Hai Bà Trưng, Hà Nội",
      "name": "Taca - Lẩu Nướng Ship",
      "latitude": 21.0075,
      "longitude": 105.8669,
      "description": "Videlicet suasoria vere vulgaris odit desipio decens cotidie angelus vaco. Capillus triumphus amicitia causa ocer sub illum iure dolorum. Accusator tamdiu decor."
    },
    {
      "address": "178 Triệu Việt Vương, P. Bùi Thị Xuân, Hai Bà Trưng, Hà Nội",
      "name": "Fenghuang - Triệu Việt Vương",
      "latitude": 21.012641,
      "longitude": 105.850388,
      "description": "Dolorum aeneus aequus culpo tres. Cribro doloremque vicinus depraedor xiphias delego officia. Defero volo tenetur cibus demum."
    },
    {
      "address": "15 Tô Hiến Thành, P. Bùi Thị Xuân, Hai Bà Trưng, Hà Nội",
      "name": "Wabi Sabi Vườn Nhật",
      "latitude": 21.013518,
      "longitude": 105.851115,
      "description": "Suffragium velut templum uterque tabgo conitor suspendo una. Caput incidunt exercitationem cunctatio terra cruciamentum repudiandae curatio commodi. Triduana ventus optio dapifer acsi molestias reprehenderit deripio solium corpus."
    },
    {
      "address": " 205 Lò Đúc, P. Đống Mác, Hai Bà Trưng, Hà Nội",
      "name": "Lẩu My - Lò Đúc",
      "latitude": 21.0093705153047,
      "longitude": 105.861427197795,
      "description": "Expedita ustulo odit vulticulus tergiversatio depulso. Conforto stips volva subiungo capio undique credo. Aequus ara defero ut capillus audeo dolorum venio."
    },
    {
      "address": "107 E7 Tạ Quang Bửu, P. Bách Khoa, Hai Bà Trưng, Hà Nội",
      "name": "Nhà Hàng Phong Béo",
      "latitude": 21.002141,
      "longitude": 105.849194,
      "description": "Ipsam cognatus deleniti cattus conicio denego. Deprecator magnam auctus torrens. Beatus adeo casso apto."
    },
    {
      "address": "94 Thanh Nhàn, P. Thanh Nhàn, Hai Bà Trưng, Hà Nội",
      "name": "Tuấn Lẩu - Thanh Nhàn",
      "latitude": 21.003179,
      "longitude": 105.852237,
      "description": "Vestigium utpote cupiditate provident doloremque solum omnis articulus. Clementia velut vivo illo tabernus a. Corrumpo tardus mollitia."
    },
    {
      "address": "3 Ngõ 121 Lê Thanh Nghị, P. Đồng Tâm, Hai Bà Trưng, Hà Nội",
      "name": "Long Quân - Lẩu & Cơm Văn Phòng",
      "latitude": 21.001817,
      "longitude": 105.843458,
      "description": "Consuasor cognomen rerum thalassinus demergo dolor ventosus. Tam strenuus theca amor tot derideo. Cresco vobis spectaculum."
    },
    {
      "address": "65 Ngõ Huế, P. Ngô Thì Nhậm, Hai Bà Trưng, Hà Nội",
      "name": "Nhà Hàng Chim Sáo - 65 Ngõ Huế",
      "latitude": 21.0147789,
      "longitude": 105.852965,
      "description": "Eum concedo villa ratione canonicus copia. Solutio vulariter crastinus triumphus doloremque tero suspendo. Stips vox curriculum crepusculum stips."
    },
    {
      "address": "52 Võ Thị Sáu, P. Thanh Nhàn, Hai Bà Trưng, Hà Nội",
      "name": "Deli 4B - BBQ & Hotpot - Võ Thị Sáu",
      "latitude": 21.006381,
      "longitude": 105.85475,
      "description": "Vorax adficio carus urbs neque animus. Inventore defluo quia supplanto. Amo verto viduo corporis via supellex crepusculum."
    },
    {
      "address": "1A Thanh Nhàn, P. Thanh Nhàn, Hai Bà Trưng, Hà Nội",
      "name": "KIKI - Lẩu Nướng & Cơm Văn Phòng",
      "latitude": 21.002957,
      "longitude": 105.861205,
      "description": "Clamo vinco degusto accedo aestas vallum. Error tabesco abbas. Deleniti undique ducimus coruscus taceo ocer natus."
    },
    {
      "address": "157 Đại La, P. Đồng Tâm, Hai Bà Trưng, Hà Nội",
      "name": "Gia Phát - Vịt Quay Quảng Đông",
      "latitude": 20.99649322,
      "longitude": 105.8455075,
      "description": "Tristis crepusculum solum brevis tabgo vae. Currus aiunt voluntarius acies teneo coepi. Illum adversus harum minima."
    },
    {
      "address": "67 Bùi Thị Xuân, P. Nguyễn Du, Hai Bà Trưng, Hà Nội",
      "name": "Quán Ăn Nhật Bản Nagomi",
      "latitude": 21.0182096321491,
      "longitude": 105.849942173467,
      "description": "Vomica ars molestiae acquiro sollicito cibo trucido trans acceptus pauper. Canis utrum xiphias adficio sunt admoveo ter coadunatio. Clamo trucido nobis angulus causa."
    },
    {
      "address": "19 Lê Đại Hành, P. Lê Đại Hành, Hai Bà Trưng, Hà Nội",
      "name": "Ngọc Huyền - Chân Gà Nướng",
      "latitude": 21.012245,
      "longitude": 105.847517,
      "description": "Id tui curriculum volutabrum iste convoco capio confero. Vinum aestus vulgo supellex. Accusantium conqueror amitto sunt culpo."
    },
    {
      "address": "228B Ngõ 34 Vinh Tuy, Hai Bà Trưng, Hà Nội",
      "name": "Quán XO - Gà Ta Nướng Lu",
      "latitude": 20.996033,
      "longitude": 105.874047,
      "description": "Conforto tergum baiulus cilicium aestivus quibusdam dignissimos utor assentator accusator. Causa usque vox vulticulus vobis accendo. Volo ambulo abeo dapifer victoria ter aliqua."
    },
    {
      "address": "33 Lê Ngọc Hân, P. Ngô Thì Nhậm, Hai Bà Trưng, Hà Nội",
      "name": "Bánh Đa & Lẩu Cua Đồng Hải Phòng - Lê Ngọc Hân",
      "latitude": 21.016342,
      "longitude": 105.855336,
      "description": "Adipiscor aiunt suspendo turpis cometes deserunt ratione summa cotidie. Incidunt balbus depono texo socius voluptatum vestrum varius. Caste magnam comprehendo."
    },
    {
      "address": "11N1 Ngách 15 Ngõ 230 Lạc Trung, P. Thanh Lương, Hai Bà Trưng, Hà Nội",
      "name": "Lẩu Thái Hải Sản Nhà Nhím - Shop Online",
      "latitude": 21.003814,
      "longitude": 105.865927,
      "description": "Vomito deprecator vorago conor aperte. Defluo textor atrocitas careo cenaculum temptatio ex sunt. Utrum venia amet studio torqueo virgo votum tenax accusamus conspergo."
    },
    {
      "address": "168 Hồng Mai, P. Quỳnh Lôi, Hai Bà Trưng, Hà Nội",
      "name": "Bún Ốc Tú Béo",
      "latitude": 20.99872,
      "longitude": 105.85441,
      "description": "Vacuus adstringo conicio comparo utor cupio thalassinus statim. Solutio cupiditas vivo trucido adfero recusandae talio speculum toties. Sophismata verus volo comparo clarus uterque minus."
    },
    {
      "address": "11 Ngách 91/85 Ngõ Trại Cá, P. Trương Định, Hai Bà Trưng, Hà Nội",
      "name": "Lẩu & Nướng Online 24/7",
      "latitude": 20.9932246543183,
      "longitude": 105.846710473133,
      "description": "Amplus quia substantia vero velit. Officia delibero sophismata cupiditas quisquam surculus tergum conservo tepesco ulterius. Tempore capto celebrer delectatio ambitus."
    },
    {
      "address": "Số 59 Đại Cồ Việt, P. Bách Khoa, Hai Bà Trưng, Hà Nội",
      "name": "Lẩu Nướng Tú Béo Thìn Béo - Lẩu & Nướng - Đại Cồ Việt",
      "latitude": 21.00785156,
      "longitude": 105.84635591,
      "description": "Templum aequitas voluptatum bibo adflicto agnosco. Doloremque universe barba tandem auditor vel tunc deleo. Versus facilis quisquam sperno usque."
    },
    {
      "address": "56 Phố Huế, P. Phố Huế, Hai Bà Trưng, Hà Nội",
      "name": "Khúc Khích Gastrobar - Lòng Bò Nướng & Tokboki Rose - 56 Phố Huế",
      "latitude": 21.0181186,
      "longitude": 105.8514549,
      "description": "Calamitas quasi versus contego tero carpo. Beatus absque esse cicuta ascisco anser laborum admiratio impedit aqua. Contabesco ocer civitas ter tergo unus thymbra avaritia ubi."
    },
    {
      "address": "124 Hồng Mai, P. Bạch Mai, Hai Bà Trưng, Hà Nội",
      "name": "Nướng 124 Hồng Mai - Bò Nướng - Hồng Mai",
      "latitude": 21.0000814,
      "longitude": 105.8522287,
      "description": "Rem tabesco copia derelinquo cubitum avarus subvenio. Vetus approbo suffragium corrigo accommodo omnis crinis solutio dolores textus. Suppellex id labore subseco adulescens ambitus tribuo defleo attonbitus."
    },
    {
      "address": "72 Trần Đại Nghĩa, P. Đồng Tâm, Hai Bà Trưng, Hà Nội",
      "name": "Lẩu Bò Khô - 72 Trần Đại Nghĩa",
      "latitude": 21.000723,
      "longitude": 105.8448777,
      "description": "Torqueo adamo canonicus alius vigilo patria. Supplanto tonsor agnosco vorax uredo appono velit torrens. Angulus cruciamentum constans territo magnam accusantium vitiosus."
    },
    {
      "address": "103K6B Ngõ 48 Tạ Quang Bửu, P. Bách Khoa, Hai Bà Trưng, Hà Nội",
      "name": "Ba Bún - Ngan Ngon Các Loại - Tạ Quang Bửu",
      "latitude": 21.000567,
      "longitude": 105.848532,
      "description": "Approbo celo delectatio cinis demulceo. Depraedor sperno auditor. Bellicus alter adimpleo chirographum eum aureus expedita."
    },
    {
      "address": "Kí Ốt 4 D Ngõ 124 Vĩnh Tuy, Hai Bà Trưng, Hà Nội",
      "name": "Tiệm Mì Trộn Màu Hồng - Vĩnh Tuy",
      "latitude": 21.000732,
      "longitude": 105.876873,
      "description": "Suffragium cuppedia subnecto assentator cupressus consectetur triduana adhuc ex. Universe consectetur caecus id. Assumenda via audacia adsum."
    },
    {
      "address": "10 Ngõ 64 Thọ Lão, P. Đồng Nhân, Hai Bà Trưng, Hà Nội",
      "name": "Quán Ăn Đêm Anh Béo - Shop Online - Thọ Lão",
      "latitude": 21.011242,
      "longitude": 105.856569,
      "description": "Debitis sollers defetiscor culpo avaritia deficio sint. Decor casus angelus cultura aro demonstro. Careo acidus amissio trans."
    },
    {
      "address": "505 Minh Khai, P. Vĩnh Tuy, Hai Bà Trưng, Hà Nội",
      "name": "Lẩu Hầm Hải Sản HOYO - Shop Online",
      "latitude": 20.999759,
      "longitude": 105.870391,
      "description": "Terror cunabula crux comes. Sint chirographum apostolus creo. Aliquam tandem tersus maxime alii administratio tero conculco deduco."
    },
    {
      "address": "18 Ngách 67 Ngõ 295 Bạch Mai, P. Bạch Mai, Hai Bà Trưng, Hà Nội",
      "name": "Trang Vũ - Cơm, Bún, Mì & Lẩu Nướng",
      "latitude": 21.002037,
      "longitude": 105.852767,
      "description": "Ait amiculum auxilium coerceo earum. Speculum temeritas tumultus dapifer earum cito animus. Timidus acquiro sum congregatio socius victus defetiscor earum necessitatibus sunt."
    },
    {
      "address": "116 Trương Định, Hai Bà Trưng, Hà Nội",
      "name": "Tiệm Mì Trộn Màu Hồng",
      "latitude": 20.993087,
      "longitude": 105.8495219,
      "description": "Desipio verecundia tandem. Ullus attero accendo error curto auxilium cariosus colo conforto. Cum rerum vestigium pariatur."
    },
    {
      "address": "21/10/433 Bạch Mai, P. Bạch Mai, Hai Bà Trưng, Hà Nội",
      "name": "Nem Nướng Nha Trang Trường An - Bạch Mai",
      "latitude": 20.998395705555,
      "longitude": 105.850667676385,
      "description": "Agnitio modi quam vulgaris arceo agnosco viscus. Tamquam decipio debilito verumtamen coaegresco esse. Comedo sponte tabella ducimus."
    },
    {
      "address": "104K3 Ngõ 48 Tạ Quang Bửu, P. Bách Khoa, Hai Bà Trưng, Hà Nội",
      "name": "ZooZoo - Cơm Văn Phòng, Ăn Vặt & Lẩu",
      "latitude": 21.00086779,
      "longitude": 105.84814489,
      "description": "Conduco subvenio fuga delicate. Casus itaque tres aggredior alii cubo vito universe consequuntur. Aggredior denuo cultura solus."
    },
    {
      "address": "103 Dương Văn Bé, P. Vĩnh Tuy, Hai Bà Trưng, Hà Nội",
      "name": "Henry Food - Cơm Gạo Lứt",
      "latitude": 20.9986752286002,
      "longitude": 105.873428923213,
      "description": "Stips tantillus decor. Coma minus aeneus templum arca atqui. Culpa decet apparatus vehemens aeternus torqueo tum dolorem corrupti casso."
    },
    {
      "address": "107 Ngõ 6 Quỳnh Lôi, P. Quỳnh Mai, Hai Bà Trưng, Hà Nội",
      "name": "Linh's Tea - Milo Dầm & Pudding Trà Sữa - Quỳnh Lôi",
      "latitude": 21.00233964,
      "longitude": 105.8589715,
      "description": "Careo spiculum tamisium aggero barba. Voro thesis stabilis talio solium cometes spargo velit sollers. Tenus sponte averto magni thalassinus tredecim quis audio sumo."
    },
    {
      "address": "543 Giải Phóng, P. Đồng Tâm, Hai Bà Trưng, Hà Nội",
      "name": "Ngân Lộc - Vịt Quay Lạng Sơn - Giải Phóng",
      "latitude": 20.991718,
      "longitude": 105.84133,
      "description": "Benigne defero vivo abutor derideo deduco admoveo vero vere. Cogito iste conscendo vobis defungo autus sum copia contego. Creptio ambulo eos."
    },
    {
      "address": "49 Triệu Việt Vương, P. Bùi Thị Xuân, Hai Bà Trưng, Hà Nội",
      "name": "Konne - Japanese Hakata Restaurant & Café",
      "latitude": 21.0161724,
      "longitude": 105.8506,
      "description": "Sopor admiratio ascit animus. Caute accusantium aurum acerbitas adduco thema cui. Adversus cruentus temptatio autem defero iste cui."
    },
    {
      "address": "51A Đại Cồ Việt, P. Bách Khoa, Hai Bà Trưng, Hà Nội",
      "name": "Dũng Cồ - Cơm Văn Phòng & Lẩu",
      "latitude": 21.007879,
      "longitude": 105.846836,
      "description": "Capillus stultus explicabo asporto cerno verecundia tres. Acsi textilis bardus bos vociferor. Terra stillicidium corpus pariatur vicissitudo videlicet angelus aptus annus deficio."
    },
    {
      "address": "B8 - B9 Shophouse Imperia Sky Garden, 423 Minh Khai, P. Vĩnh Tuy, Hai Bà Trưng, Hà Nội",
      "name": "Layla House - Lẩu HongKong & Đồ Ăn Eat Clean",
      "latitude": 20.998125,
      "longitude": 105.86694,
      "description": "Derelinquo ea administratio coaegresco tersus voluptatem taedium. Aptus copia arx callide vorago crinis velut deficio aegre. Sumptus facilis auxilium convoco deduco."
    },
    {
      "address": "4 Ngách 34/55 Dương Văn Bé, P. Vĩnh Tuy, Hai Bà Trưng, Hà Nội",
      "name": "Bánh Tráng Trộn & Nem Lụi Nướng - Bếp Nhà Thỏ",
      "latitude": 21.0001871,
      "longitude": 105.87280663,
      "description": "Demoror conor deinde blandior repellat tandem vinculum vilis. Atqui advoco illum magni cohaero deripio carbo tener termes. Vulgo infit ceno ducimus vulgus cedo charisma architecto colligo tabernus."
    },
    {
      "address": "22 Ngõ 41 Bùi Ngọc Dương, P. Quỳnh Lôi, Hai Bà Trưng, Hà Nội",
      "name": "Thái Madee - Lẩu Thái & Xôi Xoài",
      "latitude": 21.00073477,
      "longitude": 105.8542527,
      "description": "Desipio vereor vix coruscus uberrime. Vehemens cohors conturbo. Cognomen totam clam clementia contigo suscipit tepesco thesis."
    },
    {
      "address": "107 Y9 Ngõ Tự Do, P. Đồng Tâm, Hai Bà Trưng, Hà Nội",
      "name": "Guu Chicken Plus - Ngõ Tự Do",
      "latitude": 20.998282,
      "longitude": 105.847027,
      "description": "Turbo crinis depraedor tamdiu. Atavus reiciendis iste talio atque aegre desparatus acceptus. Delicate repellendus somniculosus blanditiis spiculum spiculum."
    },
    {
      "address": "1E6 Quỳnh Mai, P. Quỳnh Mai, Hai Bà Trưng, Hà Nội",
      "name": "Guu Chicken Plus - Quỳnh Mai",
      "latitude": 21.001619,
      "longitude": 105.861009,
      "description": "Videlicet assentator thema cogito artificiose id vulgo animadverto terror aurum. Tabula adduco tondeo caute rem pecus concedo abbas conculco capio. Balbus tredecim iste excepturi."
    },
    {
      "address": "Số 206 Bà Triệu, P. Nguyễn Du, Hai Bà Trưng, Hà Nội",
      "name": "Bếp Phượng - Cơm Tấm Sài Gòn, Bún Riêu & Lẩu Riêu Cua Đồng - 206 Bà Triệu",
      "latitude": 21.01564032,
      "longitude": 105.84904885,
      "description": "Laborum conculco casus ex terra armarium arbor adhuc ter. Victus cur impedit sopor vulnero corporis celer delinquo speciosus. Denique solio atavus."
    },
    {
      "address": "62 Trương Định, P. Trương Định, Hai Bà Trưng, Hà Nội",
      "name": "Viên Thả Lẩu & Xúc Xích Phomai - Trương Định",
      "latitude": 20.9943147,
      "longitude": 105.8474519,
      "description": "Demo voluntarius desolo desidero esse cribro deleo adnuo tempus. Acies assumenda voco supplanto cur. Celo aeger voro."
    },
    {
      "address": "80 Ngõ 296 Minh Khai, P. Vĩnh Tuy, Hai Bà Trưng, Hà Nội",
      "name": "Cháo Sườn Sụn Phương Anh",
      "latitude": 20.9937417,
      "longitude": 105.860844,
      "description": "Usitas depulso coma. Altus subito cognomen volva colligo vinitor via crepusculum. At minus tener angulus admoneo aetas speciosus perferendis casus."
    },
    {
      "address": "27 Đại La, P. Trương Định, Hai Bà Trưng, Hà Nội",
      "name": "Chuối Nướng Buffet 139k - Đại La",
      "latitude": 20.99738477,
      "longitude": 105.846351,
      "description": "Demens vero accedo patrocinor rem. Textus amet cuppedia comedo eveniet hic ara. Desidero accedo ea vicinus cognatus verbum quod."
    },
    {
      "address": "20 Đại Cồ Việt, P. Lê Đại Hành, Hai Bà Trưng, Hà Nội",
      "name": "Minh Thủy - Riêu Cua Ốc & Lẩu Thập Cẩm - Đại Cồ Việt",
      "latitude": 21.00868745,
      "longitude": 105.85001403,
      "description": "Acceptus ulciscor deprecator admoveo circumvenio. Venio adflicto dicta varius calco aggero tamdiu abundans. Amoveo xiphias demum canto desidero antepono viduo temporibus absconditus voluptatum."
    },
    {
      "address": "Ngõ 17 Mạc Thị Bưởi, P. Vĩnh Tuy, Hai Bà Trưng, Hà Nội",
      "name": "Viên Thả Lẩu 27 - Ăn Vặt - MTB",
      "latitude": 20.999967,
      "longitude": 105.8693004,
      "description": "Accendo corpus adversus aestas voluptatum truculenter. Solvo acervus debitis bellum. Abundans taceo supra velut expedita decimus tempora atque sequi curriculum."
    },
    {
      "address": "15 Ngõ 164 Hồng Mai, P. Quỳnh Lôi, Hai Bà Trưng, Hà Nội",
      "name": "Lẩu Trang Ly - Lẩu Thái Hải Sản - Hồng Mai",
      "latitude": 20.9981141,
      "longitude": 105.8538494,
      "description": "Aduro defluo casso. Vinco ambulo ambitus cubicularis totus consuasor casus eum. Deripio truculenter colo approbo crapula comparo claustrum tamquam."
    },
    {
      "address": "378 Minh Khai, P. Vĩnh Tuy, Hai Bà Trưng, Hà Nội",
      "name": "Min Food Ship24h - Lẩu & Nướng - 378 Minh Khai",
      "latitude": 20.9960591,
      "longitude": 105.8644012,
      "description": "Vis laudantium cui. Tum velociter aiunt altus amiculum consequatur sapiente comitatus ab. Succurro aeternus vobis tego aveho praesentium tollo."
    },
    {
      "address": "Số 9 Tuệ Tĩnh, P. Bùi Thị Xuân, Hai Bà Trưng, Hà Nội",
      "name": "Bún Riêu Cô Hoàn - Tuệ Tĩnh",
      "latitude": 21.01527981,
      "longitude": 105.85114865,
      "description": "Caritas bis doloremque viscus ex deripio arbustum summopere cum curvo. Spes temporibus vulgo. Pecco utrum damno adsidue."
    },
    {
      "address": "31 Tuệ Tĩnh, P. Bùi Thị Xuân, Hai Bà Trưng, Hà Nội",
      "name": "Hà Phương - Lẩu & Đồ Ăn Vặt",
      "latitude": 21.015137,
      "longitude": 105.850301,
      "description": "Caecus anser thymbra assumenda decet curriculum ascisco. Vorago velociter thymum viridis conduco cubo conitor coruscus atrocitas. Aggredior vitae condico adsidue."
    },
    {
      "address": "91 Trần Khát Chân, P. Thanh Lương, Hai Bà Trưng, Hà Nội",
      "name": "Nướng Dân Dã",
      "latitude": 21.00878152,
      "longitude": 105.86247256,
      "description": "Caste ventus appello tres vacuus. Decimus thema ventosus solutio adfero vulgus illo accedo quaerat. Argumentum admoneo ad voveo vae villa tam utor advenio."
    },
    {
      "address": "11 Ngách 1 Ngõ 880 Bạch Đằng, P. Thanh Lương, Hai Bà Trưng, Hà Nội",
      "name": "Bếp Family - Lẩu & Đồ Nhậu Online",
      "latitude": 21.008601,
      "longitude": 105.868763,
      "description": "Carus tracto cruentus cuppedia delectus comparo tertius sortitus aequus. Cui thesis theologus curiositas cultura illo. Velum vivo talio cupiditate tamen minus ipsum triduana."
    },
    {
      "address": "28 Ngõ 156 Hồng Mai, P. Bạch Mai, Hai Bà Trưng, Hà Nội",
      "name": "Bùm Quán - Chân Gà, Cánh Gà & Đồ Ăn Vặt",
      "latitude": 20.997894,
      "longitude": 105.852766,
      "description": "Vestrum cohaero minus nesciunt talis asper. Denique caute minima vicinus teres peior deorsum astrum sordeo vesica. Umerus aggero termes spiculum antepono quam."
    },
    {
      "address": "111Y9 Tập Thể Kinh Tế Quốc Dân - Ngõ Tự Do, Hai Bà Trưng, Hà Nội",
      "name": "Lẩu Thái Hải Sản Hoa Quả - Shop Online",
      "latitude": 20.998111,
      "longitude": 105.846833,
      "description": "Comis autus itaque coniecto aut arto crudelis voro vaco. Cubo necessitatibus aptus varietas denego ustilo amoveo vociferor succedo. Arceo creo sordeo voco clarus beatus."
    },
    {
      "address": "56 Kim Ngưu, P. Thanh Nhàn, Hai Bà Trưng, Hà Nội",
      "name": "Cường Trà - Thịt Xiên Nướng - Kim Ngưu",
      "latitude": 21.007869,
      "longitude": 105.860691,
      "description": "Speciosus vito absconditus suppono tracto absconditus facilis desparatus corona utilis. Corroboro at est tantillus deserunt tepidus contra amitto adinventitias omnis. Solutio crinis vos."
    },
    {
      "address": "Ngõ 64 Tô Hiến Thành, P. Bùi Thị Xuân, Hai Bà Trưng, Hà Nội",
      "name": "Nhà Hàng Bể Cá - Thực Phẩm Homemade",
      "latitude": 21.013388,
      "longitude": 105.849817,
      "description": "Theca addo dolorum cometes. Sum cura tendo calamitas solium vicinus aut dolorem calco carbo. Molestiae sint quas uterque speculum culpo."
    },
    {
      "address": "52/27 Chùa Liên Phái Bạch Mai, P. Cầu Dền, Hai Bà Trưng, Hà Nội",
      "name": "BẾP MẸ THỎ - Lẩu - Bạch Mai",
      "latitude": 21.005037,
      "longitude": 105.850423,
      "description": "Contabesco derideo aut dapifer conatus beatae dicta conor. Sumo audeo voluptatibus terreo eaque colo triduana virgo itaque. Deludo et vorago casso quaerat sollers."
    },
    {
      "address": "18 Ngách 67 Ngõ 295 Bạch Mai, P. Bạch Mai, Hai Bà Trưng, Hà Nội",
      "name": "Bếp Trang Vũ - Cơm Văn Phòng, Lẩu Thái & Lẩu Ếch Online",
      "latitude": 21.001969,
      "longitude": 105.852739,
      "description": "Concedo torqueo cito abduco animadverto accusantium accusamus alias. Cado tergiversatio annus vulnero blandior correptius est contego accendo absum. Ratione volutabrum officiis aegre cognatus decretum depono vereor."
    },
    {
      "address": "3 Ngõ 256 Phố Lê Thanh Nghị, P. Đồng Tâm, Hai Bà Trưng, Hà Nội",
      "name": "Ngan Vịt Phố Cổ - Lê Thanh Nghị",
      "latitude": 20.996799,
      "longitude": 105.8459277,
      "description": "Vix delectatio nisi cruciamentum vero. Stillicidium claustrum solvo cariosus sequi apto umerus solium odit. Cunae nesciunt supellex caterva adeo dolore."
    }
  ]
}