[
  {
    "id": 1,
    "address": "88 Trần Đại Nghĩa, P. Đồng Tâm",
    "name": "Linh",
    "latitude": 20.9984221,
    "longitude": 105.8457486,
    "description": ""
  },
  {
    "id": 2,
    "address": "13 Lê Đại Hành, P. Lê Đại Hành",
    "name": "Sio Sushi",
    "latitude": 21.0098221,
    "longitude": 105.8500011,
    "description": ""
  },
  {
    "id": 3,
    "address": "Tầng 3, số 21 Lê Văn Hưu, Phạm Đình Hổ",
    "name": "Botanica - Salad, Steak & Pasta",
    "latitude": 21.01831,
    "longitude": 105.853862,
    "description": ""
  },
  {
    "id": 4,
    "address": "80 Ngõ 254 Minh Khai, P. Mai Động",
    "name": "Xôi Thưởng 88 - Xôi Phú Thượng",
    "latitude": 20.993596,
    "longitude": 105.858601,
    "description": ""
  },
  {
    "id": 5,
    "address": "32 Triệu Việt Vương",
    "name": "Gia Đình BB",
    "latitude": 21.017548,
    "longitude": 105.8504,
    "description": ""
  },
  {
    "id": 6,
    "address": "111 Triệu Việt Vương",
    "name": "An Biên - Món Ngon Hải Phòng",
    "latitude": 21.014114,
    "longitude": 105.850486,
    "description": ""
  },
  {
    "id": 7,
    "address": "67 Tô Hiến Thành",
    "name": "Sumo BBQ - Nhà Hàng Thịt Nướng Nhật Bản",
    "latitude": 21.0131859,
    "longitude": 105.8476682,
    "description": ""
  },
  {
    "id": 8,
    "address": "49 Lê Ngọc Hân",
    "name": "Spaghetti Box",
    "latitude": 21.0167531,
    "longitude": 105.8551779,
    "description": ""
  },
  {
    "id": 9,
    "address": "2C Thái Phiên, P. Lê Đại Hành",
    "name": "Yu Tang - Trà Sữa & Mỳ Đài Loan",
    "latitude": 21.010575,
    "longitude": 105.85151,
    "description": ""
  },
  {
    "id": 10,
    "address": "8 Tô Hiến Thành",
    "name": "Domino's Pizza",
    "latitude": 21.0135503,
    "longitude": 105.851053,
    "description": ""
  },
  {
    "id": 11,
    "address": "55 Phố Huế",
    "name": "Nhà Hàng 123",
    "latitude": 21.0180796,
    "longitude": 105.8517142,
    "description": ""
  },
  {
    "id": 12,
    "address": "11 Ngõ 158 Hồng Mai, P. Bạch Mai",
    "name": "Bánh Gà Thần Thánh",
    "latitude": 20.998418,
    "longitude": 105.852976,
    "description": ""
  },
  {
    "id": 13,
    "address": "Tầng 5, Vincom Center, 191 Bà Triệu",
    "name": "Pasta & Pizza Capricciosa",
    "latitude": 21.010308,
    "longitude": 105.849168,
    "description": ""
  },
  {
    "id": 14,
    "address": "66 Tô Hiến Thành",
    "name": "Bánh Cuốn Bà Hoành",
    "latitude": 21.013508,
    "longitude": 105.849838,
    "description": ""
  },
  {
    "id": 15,
    "address": "48 Trần Đại Nghĩa",
    "name": "Anh Hòa Bakery & Coffee",
    "latitude": 21.0017148,
    "longitude": 105.8449808,
    "description": ""
  },
  {
    "id": 16,
    "address": "97 Mai Hắc Đế, P. Bùi Thị Xuân",
    "name": "Don Chicken - Chicken & Pub",
    "latitude": 21.012947,
    "longitude": 105.851043,
    "description": ""
  },
  {
    "id": 17,
    "address": "151 Bùi Thị Xuân",
    "name": "GoGi House - Nướng Hàn Quốc",
    "latitude": 21.018136,
    "longitude": 105.849927,
    "description": ""
  },
  {
    "id": 18,
    "address": "13 Lò Đúc",
    "name": "Phở Thìn",
    "latitude": 21.018103,
    "longitude": 105.855209,
    "description": ""
  },
  {
    "id": 19,
    "address": "29 Nguyễn Huy Tự, P. Bạch Đằng",
    "name": "Hủ Tiếu Mực Ba Hiếu",
    "latitude": 21.014032,
    "longitude": 105.86113,
    "description": ""
  },
  {
    "id": 20,
    "address": "107 Lò Đúc",
    "name": "KAMPONG - Cơm gà Hải Nam",
    "latitude": 21.0149372,
    "longitude": 105.856959,
    "description": ""
  },
  {
    "id": 21,
    "address": "182 Triệu Việt Vương",
    "name": "Lẩu Nấm Ashima",
    "latitude": 21.012206,
    "longitude": 105.850461,
    "description": ""
  },
  {
    "id": 22,
    "address": "Tầng 15, La Casa Hanoi Hotel, 17 Phạm Đình Hổ",
    "name": "Le Jardin - Vườn Salad",
    "latitude": 21.0163841,
    "longitude": 105.8570666,
    "description": ""
  },
  {
    "id": 23,
    "address": "2A Ngõ 27 Phố Tạ Quang Bửu, P. Bách Khoa",
    "name": "Bánh Tráng Trộn Cô Toàn",
    "latitude": 21.002351,
    "longitude": 105.849044,
    "description": ""
  },
  {
    "id": 24,
    "address": "10 Ngõ 84 Trần Đại Nghĩa",
    "name": "Greecy",
    "latitude": 20.9993961,
    "longitude": 105.8453174,
    "description": ""
  },
  {
    "id": 25,
    "address": "158 Triệu Việt Vương, P. Bùi Thị Xuân",
    "name": "Isushi Triệu Việt Vương",
    "latitude": 21.013095,
    "longitude": 105.850232,
    "description": ""
  },
  {
    "id": 26,
    "address": "292 Bà Triệu",
    "name": "Gà Rán KFC",
    "latitude": 21.0124139,
    "longitude": 105.8491546,
    "description": ""
  },
  {
    "id": 27,
    "address": "28 Ngõ 183 Trần Đại Nghĩa, P. Bách Khoa",
    "name": "Cơm Gà Giòn Booby",
    "latitude": 21.000257,
    "longitude": 105.8454787,
    "description": ""
  },
  {
    "id": 28,
    "address": "2A Trần Đại Nghĩa",
    "name": "Paris Gâteaux - Bánh Ngọt & Trà Sữa",
    "latitude": 21.001741,
    "longitude": 105.845006,
    "description": ""
  },
  {
    "id": 29,
    "address": "105Y9 - Tập Thể Kinh Tế Quốc Dân",
    "name": "Dũng Béo",
    "latitude": 20.998228,
    "longitude": 105.846552,
    "description": ""
  },
  {
    "id": 30,
    "address": "1A Tăng Bạt Hổ",
    "name": "Hoa Viên Brauhaus",
    "latitude": 21.018005,
    "longitude": 105.858732,
    "description": ""
  },
  {
    "id": 31,
    "address": "133 Bùi Thị Xuân",
    "name": "Gumiho",
    "latitude": 21.014225,
    "longitude": 105.849925,
    "description": ""
  },
  {
    "id": 32,
    "address": "8 Ngõ 8B Lê Ngọc Hân",
    "name": "Bánh Đúc Nóng & Miến Trộn",
    "latitude": 21.016898,
    "longitude": 105.855144,
    "description": ""
  },
  {
    "id": 33,
    "address": "64 - 66 Lê Thanh Nghị, P. Bách Khoa",
    "name": "Tiệm Bánh IT",
    "latitude": 21.003633,
    "longitude": 105.848422,
    "description": ""
  },
  {
    "id": 34,
    "address": "123 Phố Huế",
    "name": "TOUS les JOURS",
    "latitude": 21.015193,
    "longitude": 105.851736,
    "description": ""
  },
  {
    "id": 35,
    "address": "B1 Times City, 458 Minh Khai, P. Vĩnh Tuy",
    "name": "K-Pub - Korean BBQ Garden",
    "latitude": 20.9936886,
    "longitude": 105.8680609,
    "description": ""
  },
  {
    "id": 36,
    "address": "434 Trần Khát Chân",
    "name": "Lẩu Ánh Hồng",
    "latitude": 21.0091951258421,
    "longitude": 105.8552150800824,
    "description": ""
  },
  {
    "id": 37,
    "address": "Tầng 5, Vincom Bà Triệu, 191 Bà Triệu",
    "name": "Pizza Hut",
    "latitude": 21.010604,
    "longitude": 105.849345,
    "description": ""
  },
  {
    "id": 38,
    "address": "109 Triệu Việt Vương",
    "name": "Tonchan Ramen",
    "latitude": 21.014122,
    "longitude": 105.850476,
    "description": ""
  },
  {
    "id": 39,
    "address": "103D1 Ngách 98 Ngõ Tự Do, P. Đồng Tâm",
    "name": "Hà Anh - Nem Nướng Nha Trang",
    "latitude": 20.9991651,
    "longitude": 105.8481082,
    "description": ""
  },
  {
    "id": 40,
    "address": "17A Nguyễn Đình Chiểu, P. Lê Đại Hành",
    "name": "Phủi Quán - Lẩu & Nướng",
    "latitude": 21.015978,
    "longitude": 105.847547,
    "description": ""
  },
  {
    "id": 41,
    "address": "86 Lạc Trung, P. Thanh Lương",
    "name": "Tuyết Nhung - Cơm Gà Phú Yên",
    "latitude": 21.0031451,
    "longitude": 105.863833,
    "description": ""
  },
  {
    "id": 42,
    "address": "284 Bà Triệu",
    "name": "Nhà Hàng Lẩu Phát",
    "latitude": 21.012808,
    "longitude": 105.849112,
    "description": ""
  },
  {
    "id": 43,
    "address": "34 Nguyễn Đình Chiểu",
    "name": "Love's Crepe",
    "latitude": 21.013881,
    "longitude": 105.846865,
    "description": ""
  },
  {
    "id": 44,
    "address": "48 Trần Xuân Soạn ",
    "name": "Bò Nhúng Dấm 999",
    "latitude": 21.016856,
    "longitude": 105.853829,
    "description": ""
  },
  {
    "id": 45,
    "address": "148 Bùi Thị Xuân, P. Bùi Thị Xuân",
    "name": "Mochi Sweets",
    "latitude": 21.012153,
    "longitude": 105.849789,
    "description": ""
  },
  {
    "id": 46,
    "address": "326 Bà Triệu",
    "name": "Hiệu Lực - Bánh Mì Chảo",
    "latitude": 21.010429,
    "longitude": 105.848827,
    "description": ""
  },
  {
    "id": 47,
    "address": "322 Bà Triệu, P. Lê Đại Hành",
    "name": "Khang",
    "latitude": 21.0105062,
    "longitude": 105.8489779,
    "description": ""
  },
  {
    "id": 48,
    "address": "2B Ngõ Bà Triệu, Bà Triệu",
    "name": "Nghiện Lẩu Buffet",
    "latitude": 21.012441,
    "longitude": 105.84899,
    "description": ""
  },
  {
    "id": 49,
    "address": "Tầng 5, Vincom Bà Triệu, 191 Bà Triệu",
    "name": "Kichi Kichi Lẩu Băng Chuyền",
    "latitude": 21.010644,
    "longitude": 105.849302,
    "description": ""
  },
  {
    "id": 50,
    "address": "304 Kim Ngưu",
    "name": "Cơm Tấm Ali",
    "latitude": 20.998756,
    "longitude": 105.86178,
    "description": ""
  },
  {
    "id": 51,
    "address": "58 Triệu Việt Vương",
    "name": "Saturdays Kitchen Hanoi",
    "latitude": 21.016622,
    "longitude": 105.850349,
    "description": ""
  },
  {
    "id": 52,
    "address": "47 - 49 Mai Hắc Đế, P. Bùi Thị Xuân",
    "name": "Chen Hà Nội",
    "latitude": 21.0149,
    "longitude": 105.85104,
    "description": ""
  },
  {
    "id": 53,
    "address": "116 Bùi Thị Xuân",
    "name": "Tôm Karaoke",
    "latitude": 21.018166,
    "longitude": 105.849929,
    "description": ""
  },
  {
    "id": 54,
    "address": " Số 69 Ngõ Tự Do, P. Đồng Tâm",
    "name": "King Dakgalbi - Gà Xào Phô Mai",
    "latitude": 20.9976162,
    "longitude": 105.846502,
    "description": ""
  },
  {
    "id": 55,
    "address": "27 Ngõ 38 Dốc Thọ Lão, Lò Đúc",
    "name": "Bánh Đa Trộn",
    "latitude": 21.011455,
    "longitude": 105.857389,
    "description": ""
  },
  {
    "id": 56,
    "address": "Tầng 5, Vincom Bà Triệu, 191 Bà Triệu",
    "name": "Tokyo Yakiniku - Buffet Lẩu Nướng Nhật Bản",
    "latitude": 21.010835,
    "longitude": 105.849347,
    "description": ""
  },
  {
    "id": 57,
    "address": "166 Triệu Việt Vương",
    "name": "Kỷ Y",
    "latitude": 21.012682,
    "longitude": 105.850413,
    "description": ""
  },
  {
    "id": 58,
    "address": "27B Ngách 317 Ngõ Quỳnh, P. Bạch Mai",
    "name": "Ngọc Thạch Handmade",
    "latitude": 20.998052,
    "longitude": 105.857513,
    "description": ""
  },
  {
    "id": 59,
    "address": "57 Tô Hiến Thành",
    "name": "Chè Bun Hà Nội - Kem & Sữa Chua Trân Châu",
    "latitude": 21.013308,
    "longitude": 105.848916,
    "description": ""
  },
  {
    "id": 60,
    "address": "KTX B10 Đại Học Bách Khoa, 7 Tạ Quang Bửu, P. Bách Khoa",
    "name": "Chị Em",
    "latitude": 21.005702,
    "longitude": 105.847275,
    "description": ""
  },
  {
    "id": 61,
    "address": "155 Bà Triệu",
    "name": "Season BBQ",
    "latitude": 21.0135581139624,
    "longitude": 105.8491848036646,
    "description": ""
  },
  {
    "id": 62,
    "address": "90A Yết Kiêu, P. Nguyễn Du",
    "name": "Bánh Tráng Trộn",
    "latitude": 21.0202495,
    "longitude": 105.8425621,
    "description": ""
  },
  {
    "id": 63,
    "address": "121 Triệu Việt Vương",
    "name": "Izakaya Yancha - Ẩm Thực Nhật Bản",
    "latitude": 21.013959,
    "longitude": 105.850406,
    "description": ""
  },
  {
    "id": 64,
    "address": "Tầng B1, Times City, 458 Minh Khai",
    "name": "Al Fresco's - Pizza, Mỳ Ý, Sườn, Steak Bò Bít Tết",
    "latitude": 20.9950426,
    "longitude": 105.8683897,
    "description": ""
  },
  {
    "id": 65,
    "address": "24 Lê Văn Hưu",
    "name": "Hương Liên - Bún Chả & Nem Cua Bể",
    "latitude": 21.018014,
    "longitude": 105.85385,
    "description": ""
  },
  {
    "id": 66,
    "address": "247 Trần Đại Nghĩa, P. Trương Định",
    "name": "Gimbab Hàn Quốc",
    "latitude": 20.9972651,
    "longitude": 105.8459893,
    "description": ""
  },
  {
    "id": 67,
    "address": "Tạ Quang Bửu",
    "name": "Chè Tự Chọn",
    "latitude": 21.004047,
    "longitude": 105.847206,
    "description": ""
  },
  {
    "id": 68,
    "address": "102 E6 Bách Khoa, Tạ Quang Bửu",
    "name": "Nam Phương - Cơm Tấm Sài Gòn",
    "latitude": 21.001199,
    "longitude": 105.84945,
    "description": ""
  },
  {
    "id": 69,
    "address": "30 Thi Sách, P. Ngô Thì Nhậm",
    "name": "Mắm Quán",
    "latitude": 21.016212,
    "longitude": 105.854138,
    "description": ""
  },
  {
    "id": 70,
    "address": "162 Phố Huế",
    "name": "Pop Quán",
    "latitude": 21.0150042,
    "longitude": 105.8515073,
    "description": ""
  },
  {
    "id": 71,
    "address": "28 Tăng Bạt Hổ",
    "name": "Maison Vie",
    "latitude": 21.0173125,
    "longitude": 105.8582274,
    "description": ""
  },
  {
    "id": 72,
    "address": "163 Phố Huế",
    "name": "BBQ Garden",
    "latitude": 21.0139043,
    "longitude": 105.851745,
    "description": ""
  },
  {
    "id": 73,
    "address": "74 Trương Định",
    "name": "Nướng Nhà Mắm",
    "latitude": 20.99412,
    "longitude": 105.849665,
    "description": ""
  },
  {
    "id": 74,
    "address": "84 Trần Nhân Tông",
    "name": "Voyage",
    "latitude": 21.017824,
    "longitude": 105.841903,
    "description": ""
  },
  {
    "id": 75,
    "address": "25C Thái Phiên, P. Lê Đại Hành",
    "name": "Bánh Cuốn Dẻo Phượng Nguyễn",
    "latitude": 21.0106376,
    "longitude": 105.8502482,
    "description": ""
  },
  {
    "id": 76,
    "address": "Ngõ 106 Nguyễn Du",
    "name": "Lẩu Nguyệt",
    "latitude": 21.019912073975,
    "longitude": 105.8437881991267,
    "description": ""
  },
  {
    "id": 77,
    "address": "9 Bùi Thị Xuân, P. Bùi Thị Xuân",
    "name": "Chè Khúc Bạch Diệp Phương",
    "latitude": 21.018267,
    "longitude": 105.849974,
    "description": ""
  },
  {
    "id": 78,
    "address": "285 Ngõ Quỳnh, P. Quỳnh Lôi",
    "name": "Quán 20",
    "latitude": 20.999848,
    "longitude": 105.857022,
    "description": ""
  },
  {
    "id": 79,
    "address": "91C Võ Thị Sáu",
    "name": "Hùng Béo",
    "latitude": 21.0070821292773,
    "longitude": 105.8547004312276,
    "description": ""
  },
  {
    "id": 80,
    "address": "177 Bùi Thị Xuân",
    "name": "L'annam Seafood Buffet",
    "latitude": 21.012076,
    "longitude": 105.849817,
    "description": ""
  },
  {
    "id": 81,
    "address": "104 Yết Kiêu",
    "name": "Bánh Tráng Thịt Heo Phú Cường",
    "latitude": 21.01951,
    "longitude": 105.842421,
    "description": ""
  },
  {
    "id": 82,
    "address": "52 Trần Xuân Soạn, P. Ngô Thì Nhậm",
    "name": "Cà Te Quán",
    "latitude": 21.0168634,
    "longitude": 105.8534177,
    "description": ""
  },
  {
    "id": 83,
    "address": "30 Đoàn Trần Nghiệp, P. Bùi Thị Xuân",
    "name": "The Pizza Company",
    "latitude": 21.01187,
    "longitude": 105.849337,
    "description": ""
  },
  {
    "id": 84,
    "address": "3 Cao Đạt",
    "name": "Bún Hải Sản",
    "latitude": 21.0090013,
    "longitude": 105.8497521,
    "description": ""
  },
  {
    "id": 85,
    "address": "39 Nguyễn Du",
    "name": "Huyền Anh",
    "latitude": 21.018526,
    "longitude": 105.850171,
    "description": ""
  },
  {
    "id": 86,
    "address": "14 Ngách 10 Ngõ Mai Hương, P. Bạch Mai",
    "name": "Cơm Ngon Mẹ Nấu",
    "latitude": 21.0003124,
    "longitude": 105.8512012,
    "description": ""
  },
  {
    "id": 87,
    "address": "255 Phố Huế (Ngã Ba Phố Huế - Đoàn Trần Nghiệp), P. Phố Huế",
    "name": "SingResto - Cháo Ếch Singapore",
    "latitude": 21.011856,
    "longitude": 105.8517558,
    "description": ""
  },
  {
    "id": 88,
    "address": "82 Lê Văn Hưu",
    "name": "Tomato - Hải Sản Tươi Sống",
    "latitude": 21.018203793821,
    "longitude": 105.8524040042991,
    "description": ""
  },
  {
    "id": 89,
    "address": "18 Ngõ 187 Hồng Mai, P. Quỳnh Lôi",
    "name": "Papa’s Kitchen - Đồ Ăn Hàn Quốc & Cơm Trộn Healthy Gạo Lứt",
    "latitude": 20.9997932,
    "longitude": 105.8557629,
    "description": ""
  },
  {
    "id": 90,
    "address": "81 - 85 Đại Cồ Việt",
    "name": "Nhắng Nướng",
    "latitude": 21.0077954,
    "longitude": 105.8453462,
    "description": ""
  },
  {
    "id": 91,
    "address": "27A Nguyễn Công Trứ, P. Phạm Đình Hổ",
    "name": "MyDeli",
    "latitude": 21.014156,
    "longitude": 105.856067,
    "description": ""
  },
  {
    "id": 92,
    "address": "236 - 238 Lạc Trung",
    "name": "Phở Thanh Hà",
    "latitude": 21.002989,
    "longitude": 105.86701,
    "description": ""
  },
  {
    "id": 93,
    "address": "Tầng B1, Times City, 458 Minh Khai",
    "name": "Hotto - Món Ngon Trên Đĩa Nóng",
    "latitude": 20.9979838,
    "longitude": 105.8676418,
    "description": ""
  },
  {
    "id": 94,
    "address": "26 Trần Xuân Soạn",
    "name": "Cháo Trai",
    "latitude": 21.017074,
    "longitude": 105.854623,
    "description": ""
  },
  {
    "id": 95,
    "address": "96 Bùi Ngọc Dương, P. Bạch Mai",
    "name": "Quán 152",
    "latitude": 20.999315,
    "longitude": 105.853006,
    "description": ""
  },
  {
    "id": 96,
    "address": "Tầng 1, Tòa Nhà Hàn Việt, 203 Minh Khai",
    "name": "Lotteria",
    "latitude": 20.996448,
    "longitude": 105.861634,
    "description": ""
  },
  {
    "id": 97,
    "address": "65 - 67 Triệu Việt Vương",
    "name": "Shinbashi",
    "latitude": 21.015643,
    "longitude": 105.850435,
    "description": ""
  },
  {
    "id": 98,
    "address": "172 Triệu Việt Vương",
    "name": "Trà Sữa 172",
    "latitude": 21.0123015,
    "longitude": 105.850372,
    "description": ""
  },
  {
    "id": 99,
    "address": "107 E5 Tạ Quang Bửu",
    "name": "Bánh Xèo Nam Bộ",
    "latitude": 21.0016817,
    "longitude": 105.8494471,
    "description": ""
  },
  {
    "id": 100,
    "address": "108A1 Ngõ 27 Tạ Quang Bửu, P. Bách Khoa",
    "name": "Nem Nướng Hoa Giấy",
    "latitude": 21.002378,
    "longitude": 105.849467,
    "description": ""
  },
  {
    "id": 101,
    "address": "68 Tạ Quang Bửu, P. Bạch Mai",
    "name": "Xôi Lộc",
    "latitude": 21.0006244,
    "longitude": 105.8504586,
    "description": ""
  },
  {
    "id": 102,
    "address": "225 Bạch Mai",
    "name": "Cháo Ếch Singapore Sentosa",
    "latitude": 21.003983,
    "longitude": 105.851117,
    "description": ""
  },
  {
    "id": 103,
    "address": "72 Triệu Việt Vương",
    "name": "Hutong - Hot Pot Paradise",
    "latitude": 21.015937,
    "longitude": 105.850359,
    "description": ""
  },
  {
    "id": 104,
    "address": "288 Bà Triệu",
    "name": "Triều Nhật Asahi Sushi",
    "latitude": 21.013052,
    "longitude": 105.8491352,
    "description": ""
  },
  {
    "id": 105,
    "address": "64 Trần Đại Nghĩa, P. Đồng Tâm",
    "name": "Bánh Su Kem Singapore Chewy Junior",
    "latitude": 21.001124,
    "longitude": 105.845255,
    "description": ""
  },
  {
    "id": 106,
    "address": "Ngõ 40 Tạ Quang Bửu",
    "name": "Bánh Bột Mì Nướng",
    "latitude": 21.004073,
    "longitude": 105.847143,
    "description": ""
  },
  {
    "id": 107,
    "address": "61 Lò Đúc",
    "name": "Xôi Bự",
    "latitude": 21.0162295,
    "longitude": 105.8562673,
    "description": ""
  },
  {
    "id": 108,
    "address": "109 E7 Tạ Quang Bửu, Bách Khoa Hà Nội",
    "name": "Quẩy Nóng Hải Quẩy",
    "latitude": 21.00214,
    "longitude": 105.84878,
    "description": ""
  },
  {
    "id": 109,
    "address": "11 Ngách 269 Ngõ Quỳnh, P. Quỳnh Lôi",
    "name": "Cô Hằng",
    "latitude": 21.000444,
    "longitude": 105.856454,
    "description": ""
  },
  {
    "id": 110,
    "address": "Tầng B1, Time City, 458 Minh Khai",
    "name": "Family BBQ Buffet",
    "latitude": 20.996116,
    "longitude": 105.868871,
    "description": ""
  },
  {
    "id": 111,
    "address": "Số 2 Ngách 98 Ngõ Tự Do, Trần Đại Nghĩa",
    "name": "Nem Nướng Nha Trang Ý Thiên",
    "latitude": 20.9990394,
    "longitude": 105.847856,
    "description": ""
  },
  {
    "id": 112,
    "address": "12 Ngách 1/13 Tạ Quang Bửu (Đối Diện Số 71 Ngõ 27 Đại Cồ Việt), P. Cầu Dền",
    "name": "BAMI BEEF - Bánh Mì Bò Nướng",
    "latitude": 21.0073456,
    "longitude": 105.8484619,
    "description": ""
  },
  {
    "id": 113,
    "address": "57 Tô Hiến Thành",
    "name": "Phát Ký Mì Gia",
    "latitude": 21.013129,
    "longitude": 105.84886,
    "description": ""
  },
  {
    "id": 114,
    "address": "Số  85 Ngõ 325 P. Kim Ngưu, P, Thanh Lương",
    "name": "Châu Pha Quán",
    "latitude": 21.0047894,
    "longitude": 105.864528,
    "description": ""
  },
  {
    "id": 115,
    "address": "287 Trần Đại Nghĩa",
    "name": "Bích Béo",
    "latitude": 20.996225,
    "longitude": 105.845674,
    "description": ""
  },
  {
    "id": 116,
    "address": "91 Trần Đại Nghĩa",
    "name": "Mì Cay Seoul",
    "latitude": 21.0048209,
    "longitude": 105.8456411,
    "description": ""
  },
  {
    "id": 117,
    "address": "149 Phố Huế",
    "name": "Thu Hương & Maian Bakers",
    "latitude": 21.014124,
    "longitude": 105.85192,
    "description": ""
  },
  {
    "id": 118,
    "address": "16 Ngô Thì Nhậm",
    "name": "Quán Chè Mười Sáu",
    "latitude": 21.017935,
    "longitude": 105.852778,
    "description": ""
  },
  {
    "id": 119,
    "address": "326 Bà Triệu",
    "name": "Vân Chiến - Bún Ngan Trộn Chua Ngọt",
    "latitude": 21.0101263,
    "longitude": 105.848983,
    "description": ""
  },
  {
    "id": 120,
    "address": "178 Triệu Việt Vương, P. Bùi Thị Xuân",
    "name": "Fenghuang",
    "latitude": 21.012641,
    "longitude": 105.850388,
    "description": ""
  },
  {
    "id": 121,
    "address": "2 Ngõ 28 Hương Viên, P. Đồng Nhân",
    "name": "Chú Tuấn",
    "latitude": 21.0116781,
    "longitude": 105.8555736,
    "description": ""
  },
  {
    "id": 122,
    "address": "Ngõ 17 Tạ Quang Bửu",
    "name": "Cháo Sườn Bách Khoa",
    "latitude": 21.003547,
    "longitude": 105.847864,
    "description": ""
  },
  {
    "id": 123,
    "address": "247 Trần Đại Nghĩa, P. Trương Định",
    "name": "Thủy Đức",
    "latitude": 20.9972954,
    "longitude": 105.846017,
    "description": ""
  },
  {
    "id": 124,
    "address": "237 Kim Ngưu",
    "name": "Xả Hận",
    "latitude": 21.005012,
    "longitude": 105.861619,
    "description": ""
  },
  {
    "id": 125,
    "address": "27 Tạ Quang Bửu",
    "name": "Mr. Khoai - Khoai Lang Lắc",
    "latitude": 21.001072,
    "longitude": 105.849567,
    "description": ""
  },
  {
    "id": 126,
    "address": "43 Mai Hắc Đế",
    "name": "Nét Huế",
    "latitude": 21.0154025,
    "longitude": 105.8510503,
    "description": ""
  },
  {
    "id": 127,
    "address": "98 Mai Hắc Đế",
    "name": "Hanayuki",
    "latitude": 21.012663,
    "longitude": 105.85101,
    "description": ""
  },
  {
    "id": 128,
    "address": "299 Bạch Mai, P. Bạch Mai",
    "name": "Bún Chả Que Tre Bình Chung",
    "latitude": 21.002126,
    "longitude": 105.850772,
    "description": ""
  },
  {
    "id": 129,
    "address": "19 Nguyễn Bỉnh Khiêm, P. Nguyễn Du",
    "name": "Bánh Cuốn Nóng",
    "latitude": 21.016433,
    "longitude": 105.848674,
    "description": ""
  },
  {
    "id": 130,
    "address": "149 Bùi Thị Xuân",
    "name": "Takumi-Ya Hanoi",
    "latitude": 21.013071,
    "longitude": 105.849878,
    "description": ""
  },
  {
    "id": 131,
    "address": "1A Ngõ 230 Lạc Trung,P. Thanh Lương",
    "name": "Ba Con Sói - Mỳ Trộn Indomie Ăn Vặt",
    "latitude": 21.0032764,
    "longitude": 105.8668101,
    "description": ""
  },
  {
    "id": 132,
    "address": "11 Thái Phiên",
    "name": "Bami King - Bánh Mì Bò Nướng & Cơm Thố",
    "latitude": 21.010508,
    "longitude": 105.850935,
    "description": ""
  },
  {
    "id": 133,
    "address": "118A Phố Huế",
    "name": "Bánh Mì",
    "latitude": 21.0168,
    "longitude": 105.8514604,
    "description": ""
  },
  {
    "id": 134,
    "address": "Tầng 16, Ruby Plaza, 44 Lê Ngọc Hân",
    "name": "Ngọc Mai Đỏ",
    "latitude": 21.015732,
    "longitude": 105.855246,
    "description": ""
  },
  {
    "id": 135,
    "address": "90 Bùi Thị Xuân ",
    "name": "Yakiniku Sakura",
    "latitude": 21.018128,
    "longitude": 105.849908,
    "description": ""
  },
  {
    "id": 136,
    "address": "112 Trương Định, P. Trương Định",
    "name": "Bánh Đúc Nóng Thanh Tùng",
    "latitude": 20.993221,
    "longitude": 105.849512,
    "description": ""
  },
  {
    "id": 137,
    "address": "Ngõ Số 2 Tam Trinh, P. Minh Khai",
    "name": "Bún Đậu Lộc - Bún Đậu Mắm Tôm",
    "latitude": 20.9955245,
    "longitude": 105.8619604,
    "description": ""
  },
  {
    "id": 138,
    "address": "4 Ngõ 121 Lê Thanh Nghị, P. Đồng Tâm",
    "name": "Duy Nhất",
    "latitude": 21.001692,
    "longitude": 105.843049,
    "description": ""
  },
  {
    "id": 139,
    "address": "27 Nguyễn Du",
    "name": "Bánh Mì Minh Nhật",
    "latitude": 21.0184051,
    "longitude": 105.8509544,
    "description": ""
  },
  {
    "id": 140,
    "address": "25 Lê Đại Hành",
    "name": "Bánh Gối Lê Đại Hành",
    "latitude": 21.01018,
    "longitude": 105.849688,
    "description": ""
  },
  {
    "id": 141,
    "address": "42 Bùi Ngọc Dương, P. Bạch Mai",
    "name": "Loan Béo - Bún & Miến Ngan",
    "latitude": 21.000963,
    "longitude": 105.854047,
    "description": ""
  },
  {
    "id": 142,
    "address": "42A Tạ Quang Bửu, P. Bách Khoa",
    "name": "Bánh Mì Tuấn Mai",
    "latitude": 21.000931,
    "longitude": 105.849689,
    "description": ""
  },
  {
    "id": 143,
    "address": "12 Ngách 1/13 Tạ Quang Bửu (Đối Diện Số 69 Ngõ 27 Đại Cồ Việt), P. Đồng Tâm",
    "name": "Spaghetti Bow - Mỳ Ý & Salad",
    "latitude": 21.0076629,
    "longitude": 105.8485946,
    "description": ""
  },
  {
    "id": 144,
    "address": "18 Đoàn Trần Nghiệp, P. Bùi Thị Xuân",
    "name": "Cuốn N Roll Restaurant",
    "latitude": 21.011919,
    "longitude": 105.85015,
    "description": ""
  },
  {
    "id": 145,
    "address": "97 Lò Đúc",
    "name": "MiShaGi",
    "latitude": 21.014881,
    "longitude": 105.85703,
    "description": ""
  },
  {
    "id": 146,
    "address": "Đối Diện Ngõ 156 Hồng Mai, P. Bạch Mai",
    "name": "Đức Diệp",
    "latitude": 20.9989153,
    "longitude": 105.8532017,
    "description": ""
  },
  {
    "id": 147,
    "address": "Đầu Ngõ 25 Lò Đúc, P. Phạm Đình Hổ",
    "name": "Xôi Cô Kim",
    "latitude": 21.017497,
    "longitude": 105.855712,
    "description": ""
  },
  {
    "id": 148,
    "address": "Tầng 5 Vincom Bà Triệu, 191 Bà Triệu",
    "name": "Kowloon - Buffet Dimsum & Lẩu Hồng Kông",
    "latitude": 21.010912,
    "longitude": 105.849265,
    "description": ""
  },
  {
    "id": 149,
    "address": "23 Nguyễn Đình Chiểu, P. Lê Đại Hành",
    "name": "Sứ Bia",
    "latitude": 21.0162608,
    "longitude": 105.847589,
    "description": ""
  },
  {
    "id": 150,
    "address": "45A Mai Hắc Đế, P. Bùi Thị Xuân",
    "name": "Bún Mọc Chân Gà",
    "latitude": 21.0153254,
    "longitude": 105.850989,
    "description": ""
  },
  {
    "id": 151,
    "address": "130A Lạc Trung, P. Thanh Lương",
    "name": "ANNA Steak & Spaghetti",
    "latitude": 21.0031093493967,
    "longitude": 105.8643416927589,
    "description": ""
  },
  {
    "id": 152,
    "address": "112G Mai Hắc Đế",
    "name": "Savoor - The House Of Panini",
    "latitude": 21.011865,
    "longitude": 105.850898,
    "description": ""
  },
  {
    "id": 153,
    "address": "744 Minh Khai",
    "name": "Antico Bakery & Coffee",
    "latitude": 21.001983,
    "longitude": 105.870315,
    "description": ""
  },
  {
    "id": 154,
    "address": "Tầng 5, Vincom Bà Triệu, 191 Bà Triệu",
    "name": "Seoul Garden",
    "latitude": 21.0115353183355,
    "longitude": 105.8494681119918,
    "description": ""
  },
  {
    "id": 155,
    "address": "20 Đường 9, Tầng B1, TTTM Times City, 458 Minh Khai",
    "name": "Osaka BBQ",
    "latitude": 20.994977,
    "longitude": 105.869189,
    "description": ""
  },
  {
    "id": 156,
    "address": "16A Ngõ 36 Lê Thanh Nghị",
    "name": "Tiệm Gà Rán Óng Ánh",
    "latitude": 21.003698,
    "longitude": 105.8497896,
    "description": ""
  },
  {
    "id": 157,
    "address": "28 Đại Cồ Việt",
    "name": "Pizza Home",
    "latitude": 21.0087044,
    "longitude": 105.8493786,
    "description": ""
  },
  {
    "id": 158,
    "address": "35 Lò Đúc",
    "name": "Sữa Chua Ông Già Tóc Bạc",
    "latitude": 21.016897,
    "longitude": 105.855978,
    "description": ""
  },
  {
    "id": 159,
    "address": "101 Triệu Việt Vương",
    "name": "Nhân Sushi Hà Nội",
    "latitude": 21.014292,
    "longitude": 105.8504689999999,
    "description": ""
  },
  {
    "id": 160,
    "address": "36 Thanh Niên, Tầng B1, Times City, 458 Minh Khai",
    "name": "BBQ Plus",
    "latitude": 20.993225,
    "longitude": 105.868708,
    "description": ""
  },
  {
    "id": 161,
    "address": "14 Thiền Quang, P. Nguyễn Du",
    "name": "Chè Huyền",
    "latitude": 21.0195875,
    "longitude": 105.8428055,
    "description": ""
  },
  {
    "id": 162,
    "address": "7 Minh Khai, P. Minh Khai",
    "name": "Đức Lâm",
    "latitude": 20.99589,
    "longitude": 105.85146,
    "description": ""
  },
  {
    "id": 163,
    "address": "526 Trần Khát Chân",
    "name": "Bánh Mì Bami Bread",
    "latitude": 21.0088042,
    "longitude": 105.8527374,
    "description": ""
  },
  {
    "id": 164,
    "address": "57 Ngõ Chùa Liên Phái, Phố Bạch Mai, P. Cầu Dền",
    "name": "Mì Ramen",
    "latitude": 21.0049967,
    "longitude": 105.8494754,
    "description": ""
  },
  {
    "id": 165,
    "address": "130 Phố Huế, P. Bùi Thị Xuân",
    "name": "Bánh Mì & Xôi Yến Bee",
    "latitude": 21.015773,
    "longitude": 105.851501,
    "description": ""
  },
  {
    "id": 166,
    "address": "Ki Ốt 6, Nhà 8, Ngõ Tự Do, P. Đồng Tâm",
    "name": "Bún Chả Phố Cổ Ngọc Dung",
    "latitude": 20.998358,
    "longitude": 105.847013,
    "description": ""
  },
  {
    "id": 167,
    "address": "73 Phố Huế, P. Ngô Thì Nhậm",
    "name": "Soho Steak",
    "latitude": 21.01766,
    "longitude": 105.851535,
    "description": ""
  },
  {
    "id": 168,
    "address": "137 Mai Hắc Đế",
    "name": "Gyu-Kaku Japanese BBQ",
    "latitude": 21.0114752,
    "longitude": 105.8508629,
    "description": ""
  },
  {
    "id": 169,
    "address": "29 Nguyễn Thượng Hiền, P. Nguyễn Du",
    "name": "Vịt 29 - Nguyễn Thượng Hiền",
    "latitude": 21.018816,
    "longitude": 105.842392,
    "description": ""
  },
  {
    "id": 170,
    "address": "18 Đại Cồ Việt",
    "name": "Thu Thùy",
    "latitude": 21.0087726,
    "longitude": 105.8499663,
    "description": ""
  },
  {
    "id": 171,
    "address": "86 Phố Huế ",
    "name": "Bà Hồng",
    "latitude": 21.017423,
    "longitude": 105.85132,
    "description": ""
  },
  {
    "id": 172,
    "address": "74 Bùi Thị Xuân, P. Nguyễn Du",
    "name": "Chaka Restaurant",
    "latitude": 21.0153,
    "longitude": 105.84979,
    "description": ""
  },
  {
    "id": 173,
    "address": "B1 - D9 - 15B Vincom Times City, 458 Minh Khai",
    "name": "Shabu Shabu On-Yasai - Nhà Hàng Nhật Bản",
    "latitude": 20.994589,
    "longitude": 105.868064,
    "description": ""
  },
  {
    "id": 174,
    "address": "46B Tương Lai, B1 TTTM Time City",
    "name": "Hutong - Hot Pot Paradise",
    "latitude": 20.993402,
    "longitude": 105.867573,
    "description": ""
  },
  {
    "id": 175,
    "address": "2A Thái Phiên",
    "name": "Bò Nhúng Dấm",
    "latitude": 21.010604,
    "longitude": 105.84986,
    "description": ""
  },
  {
    "id": 176,
    "address": "35 Hòa Mã",
    "name": "Bếp Thái Sawadee",
    "latitude": 21.015161,
    "longitude": 105.852428,
    "description": ""
  },
  {
    "id": 177,
    "address": "60 Trần Xuân Soạn",
    "name": "Nấm Đại Việt",
    "latitude": 21.016772,
    "longitude": 105.85307,
    "description": ""
  },
  {
    "id": 178,
    "address": "46 Lạc Trung, P. Thanh Lương",
    "name": "Cơm Gà Xôi Mắm Còn",
    "latitude": 21.0030924,
    "longitude": 105.8630988,
    "description": ""
  },
  {
    "id": 179,
    "address": "206 Lò Đúc",
    "name": "Vịt Quay",
    "latitude": 21.0107823,
    "longitude": 105.8598235,
    "description": ""
  },
  {
    "id": 180,
    "address": "36B Mai Hắc Đế, P. Bùi Thị Xuân",
    "name": "Phở Sướng Cô Mười",
    "latitude": 21.015486,
    "longitude": 105.851004,
    "description": ""
  },
  {
    "id": 181,
    "address": "125 Mai Hắc Đế",
    "name": "Thắng Huyền",
    "latitude": 21.012019,
    "longitude": 105.851062,
    "description": ""
  },
  {
    "id": 182,
    "address": "164 Trương Định, P. Trương Định",
    "name": "Bún Đậu Hương Mơ",
    "latitude": 20.991527,
    "longitude": 105.848843,
    "description": ""
  },
  {
    "id": 183,
    "address": "59 Đại Cồ Việt, P. Lê Đại Hành",
    "name": "Thìn Béo",
    "latitude": 21.0081467,
    "longitude": 105.8463325,
    "description": ""
  },
  {
    "id": 184,
    "address": "8 Ngõ 156 Phố Hồng Mai, P. Bạch Mai",
    "name": "Ngọc Béo",
    "latitude": 20.9985301,
    "longitude": 105.8531,
    "description": ""
  },
  {
    "id": 185,
    "address": "1A Tăng Bạt Hổ",
    "name": "Buffet Việt",
    "latitude": 21.018005,
    "longitude": 105.858732,
    "description": ""
  },
  {
    "id": 186,
    "address": "46 Trần Đại Ngĩa, P. Đồng Tâm",
    "name": "KOMBO - Cơm Niêu Singapore",
    "latitude": 21.001744,
    "longitude": 105.844988,
    "description": ""
  },
  {
    "id": 187,
    "address": "10 Tạ Quang Bửu, P. Bách Khoa",
    "name": "Hàu Nướng & Hải Sản Ông Câu",
    "latitude": 21.0052428,
    "longitude": 105.8469541,
    "description": ""
  },
  {
    "id": 188,
    "address": "109E3 Lê Thanh Nghị",
    "name": "Vela2",
    "latitude": 21.003315,
    "longitude": 105.848316,
    "description": ""
  },
  {
    "id": 189,
    "address": "T4-L1-07 Times City, 458 Minh Khai",
    "name": "Tokyo Deli Express - Sushi",
    "latitude": 20.993276,
    "longitude": 105.868456,
    "description": ""
  },
  {
    "id": 190,
    "address": "Phố Nguyễn Công Trứ",
    "name": "Bánh Giò Chợ Nguyễn Công Trứ",
    "latitude": 21.01386,
    "longitude": 105.854604,
    "description": ""
  },
  {
    "id": 191,
    "address": "297 Trần Đại Nghĩa",
    "name": "An Viên",
    "latitude": 20.998292,
    "longitude": 105.845884,
    "description": ""
  },
  {
    "id": 192,
    "address": "84 Nguyễn Du",
    "name": "The Pot",
    "latitude": 21.020053,
    "longitude": 105.843674,
    "description": ""
  },
  {
    "id": 193,
    "address": "39A Thái Phiên, P. Lê Đại Hành",
    "name": "Bánh Mì Ngố",
    "latitude": 21.01089,
    "longitude": 105.849654,
    "description": ""
  },
  {
    "id": 194,
    "address": "427A Bạch Mai, P. Trương Định",
    "name": "Nhung Xinh",
    "latitude": 20.998565,
    "longitude": 105.850321,
    "description": ""
  },
  {
    "id": 195,
    "address": "49 Trần Xuân Soạn",
    "name": "Hoan Boulangerie Bakery",
    "latitude": 21.016808,
    "longitude": 105.853368,
    "description": ""
  },
  {
    "id": 196,
    "address": "Tầng B1, Times City, 458 Minh Khai",
    "name": "Dedi Deli BBQ Buffet",
    "latitude": 20.9976632654765,
    "longitude": 105.8677875995636,
    "description": ""
  },
  {
    "id": 197,
    "address": "142 Phố Huế",
    "name": "Mesa Bánh Mì",
    "latitude": 21.015369,
    "longitude": 105.851477,
    "description": ""
  },
  {
    "id": 198,
    "address": "383 Bạch Mai, P. Bạch Mai",
    "name": "Hoa",
    "latitude": 20.999892,
    "longitude": 105.850589,
    "description": ""
  },
  {
    "id": 199,
    "address": "16 Bùi Thị Xuân, P. Bùi Thị Xuân",
    "name": "Azumaya 東屋",
    "latitude": 21.018273,
    "longitude": 105.849937,
    "description": ""
  },
  {
    "id": 200,
    "address": "25 Trương Định",
    "name": "Hải Hà Kotobuki Bakery",
    "latitude": 20.995099,
    "longitude": 105.85001,
    "description": ""
  },
  {
    "id": 201,
    "address": "21 - 25 Tuệ Tĩnh, P. Bùi Thị Xuân",
    "name": "Bún Bò Huế O Xuân",
    "latitude": 21.015135,
    "longitude": 105.850571,
    "description": ""
  },
  {
    "id": 202,
    "address": "328 Bà Triệu, P. Lê Đại Hành",
    "name": "Cơm Thố Anh Nguyễn",
    "latitude": 21.009917,
    "longitude": 105.849031,
    "description": ""
  },
  {
    "id": 203,
    "address": "2 Thái Phiên",
    "name": "Đèn Lồng Quán",
    "latitude": 21.0105647,
    "longitude": 105.8512608,
    "description": ""
  },
  {
    "id": 204,
    "address": "65 Ngõ Huế, P. Ngô Thì Nhậm",
    "name": "Nhà Hàng Chim Sáo",
    "latitude": 21.0147789,
    "longitude": 105.852965,
    "description": ""
  },
  {
    "id": 205,
    "address": "179 Bùi Thị Xuân , P. Nguyễn Du",
    "name": "Le Castella Hà Nội - Taste Of Taiwan",
    "latitude": 21.0121593,
    "longitude": 105.8498321,
    "description": ""
  },
  {
    "id": 206,
    "address": "61 Nguyễn Du, P. Nguyễn Du",
    "name": "Tào Phớ ToFu",
    "latitude": 21.019868,
    "longitude": 105.844066,
    "description": ""
  },
  {
    "id": 207,
    "address": "129 Đại La",
    "name": "Bún Đậu Cây Bàng",
    "latitude": 20.99638,
    "longitude": 105.846135,
    "description": ""
  },
  {
    "id": 208,
    "address": "15 Chùa Quỳnh",
    "name": "MIN",
    "latitude": 20.9996345,
    "longitude": 105.8574442,
    "description": ""
  },
  {
    "id": 209,
    "address": "354 Bạch Mai, P. Bạch Mai",
    "name": "Bún Ốc Sườn Cô Sáu",
    "latitude": 21.00183,
    "longitude": 105.850719,
    "description": ""
  },
  {
    "id": 210,
    "address": "61 Đại Cồ Việt",
    "name": "Bò Ngon Phú Quý",
    "latitude": 21.0078987241504,
    "longitude": 105.8462253212928,
    "description": ""
  },
  {
    "id": 211,
    "address": "67 Tuệ Tĩnh, P. Nguyễn Du",
    "name": "Minh Châu - Cơm Tấm & Hủ Tiếu Nam Vang",
    "latitude": 21.015178,
    "longitude": 105.849049,
    "description": ""
  },
  {
    "id": 212,
    "address": "3/74 Lò Đúc, P. Phạm Đình Hổ",
    "name": "Cơm Tấm Sườn Nướng",
    "latitude": 21.015796,
    "longitude": 105.8562412,
    "description": ""
  },
  {
    "id": 213,
    "address": "13 Mai Hắc Đế",
    "name": "Nhà Hàng Phương Nam - Món Ngon Miền Nam",
    "latitude": 21.016315,
    "longitude": 105.850859,
    "description": ""
  },
  {
    "id": 214,
    "address": "19 Đoàn Trần Nghiệp",
    "name": "Chotto",
    "latitude": 21.011868,
    "longitude": 105.848292,
    "description": ""
  },
  {
    "id": 215,
    "address": "5 Tô Hiến Thành",
    "name": "Bún Thịt Nướng Huế - Tùng Hương",
    "latitude": 21.013558,
    "longitude": 105.851464,
    "description": ""
  },
  {
    "id": 216,
    "address": "152B Triệu Việt Vương",
    "name": "L’amour Steak",
    "latitude": 21.013724,
    "longitude": 105.850426,
    "description": ""
  },
  {
    "id": 217,
    "address": "464 Bạch Mai, P. Trương Định",
    "name": "Hansarang",
    "latitude": 20.997986,
    "longitude": 105.850059,
    "description": ""
  },
  {
    "id": 218,
    "address": "105 K1 Bách Khoa, Nguyễn Hiền, P. Bách Khoa",
    "name": "Thạch Vuông",
    "latitude": 21.001515,
    "longitude": 105.848123,
    "description": ""
  },
  {
    "id": 219,
    "address": "37 Trần Nhân Tông",
    "name": "Cháo Gia Truyền 37",
    "latitude": 21.017098,
    "longitude": 105.849599,
    "description": ""
  },
  {
    "id": 220,
    "address": "50 Nguyễn Đình Chiểu, P. Lê Đại Hành",
    "name": "Crepes Box - Fastfood & Drinks",
    "latitude": 21.013339,
    "longitude": 105.846601,
    "description": ""
  },
  {
    "id": 221,
    "address": "126 Hồng Mai",
    "name": "Cô Tám - Cơm Rang & Cơm Tấm",
    "latitude": 20.9989552,
    "longitude": 105.8526177,
    "description": ""
  },
  {
    "id": 222,
    "address": "23 Hồng Mai, P. Bạch Mai",
    "name": "Nhi Food - Nem Chua Tạm Thương & Mì Trộn Indomie",
    "latitude": 20.9990124,
    "longitude": 105.8518129,
    "description": ""
  },
  {
    "id": 223,
    "address": "148B Bùi Thị Xuân",
    "name": "Pizza Cones",
    "latitude": 21.018078,
    "longitude": 105.849865,
    "description": ""
  },
  {
    "id": 224,
    "address": " 143 Triệu Việt Vương, P. Bùi Thị Xuân",
    "name": "Le Garden",
    "latitude": 21.013369,
    "longitude": 105.85051,
    "description": ""
  },
  {
    "id": 225,
    "address": "5 Lò Đúc",
    "name": "Lẩu Ếch Lò Đúc",
    "latitude": 21.018252,
    "longitude": 105.855119,
    "description": ""
  },
  {
    "id": 226,
    "address": "6 Ngõ 28 Hương Viên, P. Đồng Nhân",
    "name": "Cô Ngà",
    "latitude": 21.011687,
    "longitude": 105.855585,
    "description": ""
  },
  {
    "id": 227,
    "address": "560 Trần Khát Chân",
    "name": "My Quán",
    "latitude": 21.0087826,
    "longitude": 105.8519941,
    "description": ""
  },
  {
    "id": 228,
    "address": "15 Tô Hiến Thành, P. Bùi Thị Xuân",
    "name": "Wabi Sabi Vườn Nhật",
    "latitude": 21.013518,
    "longitude": 105.851115,
    "description": ""
  },
  {
    "id": 229,
    "address": "9 Yết Kiêu, P. Nguyễn Du",
    "name": "Bánh Mì Phúc",
    "latitude": 21.019537,
    "longitude": 105.84265,
    "description": ""
  },
  {
    "id": 230,
    "address": "244 Bà Triệu",
    "name": "Chân Gà Nướng",
    "latitude": 21.0139841,
    "longitude": 105.8491167,
    "description": ""
  },
  {
    "id": 231,
    "address": "16 Tuệ Tĩnh",
    "name": "Miến Lươn Tân Tân",
    "latitude": 21.0151662,
    "longitude": 105.8508736,
    "description": ""
  },
  {
    "id": 232,
    "address": "125E P. Lò Đúc, P. Phạm Đình Hổ",
    "name": "Cơm Tấm Phương Anh",
    "latitude": 21.01357,
    "longitude": 105.858041,
    "description": ""
  },
  {
    "id": 233,
    "address": "91 Võ Thị Sáu, P. Thanh Nhàn",
    "name": "Mập Còi Quán",
    "latitude": 21.007083,
    "longitude": 105.854672,
    "description": ""
  },
  {
    "id": 234,
    "address": "18 Ngõ 433 Bạch Mai, P. Trương Định",
    "name": "Bún Ốc Tóp Mỡ Cô Lý",
    "latitude": 20.998427,
    "longitude": 105.850434,
    "description": ""
  },
  {
    "id": 235,
    "address": "245 Trần Đại Nghĩa",
    "name": "Big Nướng",
    "latitude": 20.997374,
    "longitude": 105.845978,
    "description": ""
  },
  {
    "id": 236,
    "address": "52 Nguyễn Bỉnh Khiêm, P. Lê Đại Hành",
    "name": "Đỏ Beer",
    "latitude": 21.0137394,
    "longitude": 105.8481756,
    "description": ""
  },
  {
    "id": 237,
    "address": "76A Mai Hắc Đế, P. Bùi Thị Xuân",
    "name": "Vua Chả Cá",
    "latitude": 21.01389,
    "longitude": 105.851009,
    "description": ""
  },
  {
    "id": 238,
    "address": "20 Lê Đại Hành, P. Lê Đại Hành",
    "name": "Dũng Hạnh - Bánh Mì Giò Chả",
    "latitude": 21.0097254,
    "longitude": 105.8500034,
    "description": ""
  },
  {
    "id": 239,
    "address": "15 Nguyễn Du, P. Bùi Thị Xuân",
    "name": "Kói",
    "latitude": 21.0183295,
    "longitude": 105.8508315,
    "description": ""
  },
  {
    "id": 240,
    "address": "101A K3 Bách Khoa, Ngõ 48 Tạ Quang Bửu",
    "name": "Cô Khanh",
    "latitude": 21.001091,
    "longitude": 105.849425,
    "description": ""
  }
]